[
  {
    "type": "Feature",
    "id": "node/172348137",
    "properties": {
      "timestamp": "2021-05-30T10:42:18Z",
      "version": "8",
      "name": "Природонаучен Музеј",
      "name:en": "Macedonian Museum of Natural History",
      "name:tr": "Ulusal Tarih Müzesi",
      "tourism": "museum",
      "wikidata": "Q20567394",
      "wikipedia": "mk:Природонаучен музеј на Македонија",
      "id": "node/172348137"
    },
    "geometry": {
      "type": "Point",
      "coordinates": [
        21.4174425,
        42.005709
      ]
    }
  },
  {
    "type": "Feature",
    "id": "node/287224902",
    "properties": {
      "timestamp": "2019-11-11T11:36:52Z",
      "version": "70",
      "name": "Tripoint",
      "name:de": "Dreiländereck",
      "tourism": "attraction",
      "seamark:type": "buoy_special_purpose",
      "id": "node/287224902"
    },
    "geometry": {
      "type": "Point",
      "coordinates": [
        20.9773384,
        40.8553275
      ]
    }
  },
  {
    "type": "Feature",
    "id": "node/301812061",
    "properties": {
      "timestamp": "2019-03-14T07:31:23Z",
      "version": "22",
      "name": "Tripoint",
      "name:de": "Dreiländereck",
      "tourism": "attraction",
      "seamark:type": "buoy_special_purpose",
      "id": "node/301812061"
    },
    "geometry": {
      "type": "Point",
      "coordinates": [
        20.9842856,
        40.8014466
      ]
    }
  },
  {
    "type": "Feature",
    "id": "node/332044751",
    "properties": {
      "timestamp": "2015-07-14T13:36:35Z",
      "version": "2",
      "name": "Славија",
      "name:en": "Slavija",
      "tourism": "hotel",
      "alt_name": "Hotel Slavija",
      "id": "node/332044751"
    },
    "geometry": {
      "type": "Point",
      "coordinates": [
        20.8800993,
        42.0151415
      ]
    }
  },
  {
    "type": "Feature",
    "id": "node/332044798",
    "properties": {
      "timestamp": "2015-07-14T13:36:35Z",
      "version": "2",
      "name": "Попова Шапка",
      "name:en": "Popova Shapka",
      "tourism": "hotel",
      "int_name": "Hotel Popova Sapka",
      "id": "node/332044798"
    },
    "geometry": {
      "type": "Point",
      "coordinates": [
        20.8804512,
        42.0136748
      ]
    }
  },
  {
    "type": "Feature",
    "id": "node/332044829",
    "properties": {
      "timestamp": "2019-05-16T03:44:20Z",
      "version": "4",
      "name": "Хотел Тетекс",
      "name:en": "Hotel Teteks",
      "tourism": "hotel",
      "int_name": "Hotel Teteks",
      "id": "node/332044829"
    },
    "geometry": {
      "type": "Point",
      "coordinates": [
        20.8838456,
        42.0132556
      ]
    }
  },
  {
    "type": "Feature",
    "id": "node/364069071",
    "properties": {
      "timestamp": "2012-09-03T11:05:49Z",
      "version": "4",
      "name": "Бистра",
      "tourism": "hotel",
      "int_name": "Bistra",
      "id": "node/364069071"
    },
    "geometry": {
      "type": "Point",
      "coordinates": [
        20.7356405,
        41.6497078
      ]
    }
  },
  {
    "type": "Feature",
    "id": "node/365840193",
    "properties": {
      "timestamp": "2012-08-16T17:46:05Z",
      "version": "5",
      "name": "Видиковец - Водно",
      "tourism": "viewpoint",
      "id": "node/365840193"
    },
    "geometry": {
      "type": "Point",
      "coordinates": [
        21.4209659,
        41.9776318
      ]
    }
  },
  {
    "type": "Feature",
    "id": "node/365840363",
    "properties": {
      "timestamp": "2019-05-14T03:44:08Z",
      "version": "6",
      "name": "Хотел Водно",
      "name:en": "Vodno Hotel",
      "tourism": "hotel",
      "website": "http://hotelimakedonija.com.mk/mk/Hotel/57/Hotel-Vodno-Skopje",
      "int_name": "Vodno",
      "id": "node/365840363"
    },
    "geometry": {
      "type": "Point",
      "coordinates": [
        21.4087904,
        41.9766582
      ]
    }
  },
  {
    "type": "Feature",
    "id": "node/367614267",
    "properties": {
      "timestamp": "2019-05-25T22:52:02Z",
      "version": "7",
      "name": "Видиковец „Скопско кале“",
      "tourism": "viewpoint",
      "id": "node/367614267"
    },
    "geometry": {
      "type": "Point",
      "coordinates": [
        21.432538,
        42.0004463
      ]
    }
  },
  {
    "type": "Feature",
    "id": "node/367853384",
    "properties": {
      "timestamp": "2021-09-24T22:52:24Z",
      "version": "7",
      "artist": "Кристина Пауновска",
      "cost": "272.792 euro",
      "description": "Историско значење Питу Гули (1865 - 12 август 1903) — македонски револуционер со влашко потекло, учесник во македонското револуционерно движење, член и војвода на Македонската револуционерна организација.\nСовременици сведочат дека Питу Гули имал завршено",
      "historic": "monument",
      "investitor": "Општина Центар",
      "learnica": "Уметничка леарница Јеремиќ",
      "name": "Питу Гули",
      "start_date": "2012",
      "id": "node/367853384"
    },
    "geometry": {
      "type": "Point",
      "coordinates": [
        21.433319,
        41.9936737
      ]
    }
  },
  {
    "type": "Feature",
    "id": "node/367860262",
    "properties": {
      "timestamp": "2009-11-01T01:02:36Z",
      "version": "2",
      "name": "Гоце Делчев",
      "historic": "monument",
      "id": "node/367860262"
    },
    "geometry": {
      "type": "Point",
      "coordinates": [
        21.4233737,
        42.0032812
      ]
    }
  },
  {
    "type": "Feature",
    "id": "node/369750026",
    "properties": {
      "timestamp": "2019-05-16T12:44:25Z",
      "version": "9",
      "name": "Влез на Скопското кале",
      "access": "no",
      "barrier": "entrance",
      "name:en": "Skopje Fortress Gate",
      "historic": "city_gate",
      "id": "node/369750026"
    },
    "geometry": {
      "type": "Point",
      "coordinates": [
        21.4338778,
        42.0008716
      ]
    }
  },
  {
    "type": "Feature",
    "id": "node/373128988",
    "properties": {
      "timestamp": "2009-04-28T13:10:57Z",
      "version": "3",
      "name": "Feni",
      "tourism": "hotel",
      "created_by": "Potlatch 0.10f",
      "id": "node/373128988"
    },
    "geometry": {
      "type": "Point",
      "coordinates": [
        22.0082491,
        41.4440951
      ]
    }
  },
  {
    "type": "Feature",
    "id": "node/373488269",
    "properties": {
      "timestamp": "2017-09-15T16:29:59Z",
      "version": "4",
      "name": "Тетовско Кале",
      "name:en": "Tetovo Fortress",
      "historic": "ruins",
      "wikidata": "Q12910952",
      "wikipedia": "mk:Тетовско кале",
      "id": "node/373488269"
    },
    "geometry": {
      "type": "Point",
      "coordinates": [
        20.960153,
        42.0195738
      ]
    }
  },
  {
    "type": "Feature",
    "id": "node/382635381",
    "properties": {
      "timestamp": "2021-03-19T20:59:22Z",
      "version": "2",
      "historic": "monument",
      "name": "Kosturnica",
      "id": "node/382635381"
    },
    "geometry": {
      "type": "Point",
      "coordinates": [
        22.0228463,
        41.4325212
      ]
    }
  },
  {
    "type": "Feature",
    "id": "node/382635530",
    "properties": {
      "timestamp": "2021-03-19T20:59:22Z",
      "version": "2",
      "tourism": "viewpoint",
      "id": "node/382635530"
    },
    "geometry": {
      "type": "Point",
      "coordinates": [
        22.0227359,
        41.4325993
      ]
    }
  },
  {
    "type": "Feature",
    "id": "node/382646189",
    "properties": {
      "timestamp": "2009-04-23T21:50:09Z",
      "version": "1",
      "historic": "monument",
      "id": "node/382646189"
    },
    "geometry": {
      "type": "Point",
      "coordinates": [
        22.0195297,
        41.4336787
      ]
    }
  },
  {
    "type": "Feature",
    "id": "node/386800518",
    "properties": {
      "timestamp": "2012-09-13T12:51:12Z",
      "version": "2",
      "name": "Park",
      "tourism": "hotel",
      "id": "node/386800518"
    },
    "geometry": {
      "type": "Point",
      "coordinates": [
        22.1008382,
        41.4950992
      ]
    }
  },
  {
    "type": "Feature",
    "id": "node/390757429",
    "properties": {
      "timestamp": "2009-05-05T07:58:24Z",
      "version": "1",
      "tourism": "viewpoint",
      "id": "node/390757429"
    },
    "geometry": {
      "type": "Point",
      "coordinates": [
        20.7914149,
        41.1148398
      ]
    }
  },
  {
    "type": "Feature",
    "id": "node/390757432",
    "properties": {
      "timestamp": "2009-05-05T07:58:46Z",
      "version": "1",
      "historic": "ruins",
      "id": "node/390757432"
    },
    "geometry": {
      "type": "Point",
      "coordinates": [
        20.7912433,
        41.1151632
      ]
    }
  },
  {
    "type": "Feature",
    "id": "node/390757439",
    "properties": {
      "timestamp": "2019-05-21T13:36:33Z",
      "version": "3",
      "name": "Лихнид",
      "name:la": "Lychnidos",
      "historic": "archaeological_site",
      "wikipedia": "it:Lychnidos",
      "id": "node/390757439"
    },
    "geometry": {
      "type": "Point",
      "coordinates": [
        20.7914836,
        41.1155576
      ]
    }
  },
  {
    "type": "Feature",
    "id": "node/393755345",
    "properties": {
      "timestamp": "2012-08-06T01:33:40Z",
      "version": "2",
      "name": "Македонија",
      "tourism": "hotel",
      "id": "node/393755345"
    },
    "geometry": {
      "type": "Point",
      "coordinates": [
        22.7208999,
        41.1862157
      ]
    }
  },
  {
    "type": "Feature",
    "id": "node/393755377",
    "properties": {
      "timestamp": "2012-08-06T01:33:40Z",
      "version": "2",
      "name": "Полин",
      "tourism": "hotel",
      "id": "node/393755377"
    },
    "geometry": {
      "type": "Point",
      "coordinates": [
        22.7224363,
        41.1843618
      ]
    }
  },
  {
    "type": "Feature",
    "id": "node/410115784",
    "properties": {
      "timestamp": "2020-05-17T05:36:04Z",
      "version": "6",
      "name": "Мечкин Камен",
      "name:en": "Mechkin Kamen",
      "historic": "monument",
      "int_name": "Mečkin Kamen",
      "id": "node/410115784"
    },
    "geometry": {
      "type": "Point",
      "coordinates": [
        21.257898,
        41.3377228
      ]
    }
  },
  {
    "type": "Feature",
    "id": "node/410115785",
    "properties": {
      "timestamp": "2021-01-03T21:48:56Z",
      "version": "5",
      "historic": "monument",
      "int_name": "Sliva",
      "name": "Слива",
      "id": "node/410115785"
    },
    "geometry": {
      "type": "Point",
      "coordinates": [
        21.2273991,
        41.3881331
      ]
    }
  },
  {
    "type": "Feature",
    "id": "node/410335524",
    "properties": {
      "timestamp": "2009-05-23T21:50:38Z",
      "version": "1",
      "name": "Hotel Imperial",
      "stars": "3",
      "tourism": "hotel",
      "id": "node/410335524"
    },
    "geometry": {
      "type": "Point",
      "coordinates": [
        21.4358015,
        41.9761668
      ]
    }
  },
  {
    "type": "Feature",
    "id": "node/410335525",
    "properties": {
      "timestamp": "2009-05-23T21:50:38Z",
      "version": "1",
      "name": "Sun Hotel",
      "stars": "3",
      "tourism": "hotel",
      "id": "node/410335525"
    },
    "geometry": {
      "type": "Point",
      "coordinates": [
        21.4362154,
        41.9762321
      ]
    }
  },
  {
    "type": "Feature",
    "id": "node/411644104",
    "properties": {
      "timestamp": "2013-04-16T13:01:53Z",
      "version": "3",
      "natural": "spring",
      "tourism": "Fountain - Češma",
      "id": "node/411644104"
    },
    "geometry": {
      "type": "Point",
      "coordinates": [
        21.2294051,
        41.3757185
      ]
    }
  },
  {
    "type": "Feature",
    "id": "node/414714609",
    "properties": {
      "timestamp": "2009-06-02T14:04:04Z",
      "version": "1",
      "ele": "368.7886963",
      "historic": "monument",
      "id": "node/414714609"
    },
    "geometry": {
      "type": "Point",
      "coordinates": [
        21.6904592,
        41.5113691
      ]
    }
  },
  {
    "type": "Feature",
    "id": "node/416417189",
    "properties": {
      "timestamp": "2016-08-22T12:49:25Z",
      "version": "5",
      "name": "hotel porta",
      "tourism": "hotel",
      "website": "http://www.hotelporta.com.mk/",
      "id": "node/416417189"
    },
    "geometry": {
      "type": "Point",
      "coordinates": [
        21.454931,
        41.9899385
      ]
    }
  },
  {
    "type": "Feature",
    "id": "node/416452220",
    "properties": {
      "timestamp": "2015-11-12T10:47:56Z",
      "version": "6",
      "name": "Хотел 7",
      "name:en": "Hotel 7",
      "tourism": "hotel",
      "id": "node/416452220"
    },
    "geometry": {
      "type": "Point",
      "coordinates": [
        21.4198508,
        41.9899482
      ]
    }
  },
  {
    "type": "Feature",
    "id": "node/416452221",
    "properties": {
      "timestamp": "2009-10-31T01:22:26Z",
      "version": "2",
      "name": "Канет",
      "tourism": "hotel",
      "id": "node/416452221"
    },
    "geometry": {
      "type": "Point",
      "coordinates": [
        21.4244806,
        42.0037446
      ]
    }
  },
  {
    "type": "Feature",
    "id": "node/418904827",
    "properties": {
      "timestamp": "2017-09-10T19:02:39Z",
      "version": "5",
      "name": "Вук;Никем",
      "tourism": "hostel",
      "id": "node/418904827"
    },
    "geometry": {
      "type": "Point",
      "coordinates": [
        21.4063454,
        41.9944128
      ]
    }
  },
  {
    "type": "Feature",
    "id": "node/426994642",
    "properties": {
      "timestamp": "2009-06-20T18:26:09Z",
      "version": "1",
      "name": "UniPalas",
      "tourism": "hotel",
      "id": "node/426994642"
    },
    "geometry": {
      "type": "Point",
      "coordinates": [
        22.0103655,
        41.4397684
      ]
    }
  },
  {
    "type": "Feature",
    "id": "node/427007569",
    "properties": {
      "timestamp": "2012-09-13T15:48:30Z",
      "version": "2",
      "name": "Шемов",
      "name:mk": "Шемов",
      "tourism": "motel",
      "int_name": "Shemov",
      "id": "node/427007569"
    },
    "geometry": {
      "type": "Point",
      "coordinates": [
        22.039196,
        41.3910101
      ]
    }
  },
  {
    "type": "Feature",
    "id": "node/443466196",
    "properties": {
      "timestamp": "2020-05-17T06:28:00Z",
      "version": "2",
      "tourism": "viewpoint",
      "id": "node/443466196"
    },
    "geometry": {
      "type": "Point",
      "coordinates": [
        21.2528049,
        41.3510814
      ]
    }
  },
  {
    "type": "Feature",
    "id": "node/444334991",
    "properties": {
      "timestamp": "2020-10-24T12:12:06Z",
      "version": "8",
      "historic": "monument",
      "int_name": "Spomenik na slobodata",
      "name": "Споменик на слободата",
      "name:en": "Monument of Freedom",
      "tourism": "attraction",
      "wikidata": "Q3402642",
      "wikipedia": "mk:Споменик на слободата (Кочани)",
      "id": "node/444334991"
    },
    "geometry": {
      "type": "Point",
      "coordinates": [
        22.4069917,
        41.9188903
      ]
    }
  },
  {
    "type": "Feature",
    "id": "node/445504108",
    "properties": {
      "timestamp": "2013-09-10T14:52:57Z",
      "version": "4",
      "name": "Hotel EUROTEL",
      "tourism": "hotel",
      "id": "node/445504108"
    },
    "geometry": {
      "type": "Point",
      "coordinates": [
        20.7061975,
        41.1716121
      ]
    }
  },
  {
    "type": "Feature",
    "id": "node/461663944",
    "properties": {
      "timestamp": "2012-10-14T16:19:52Z",
      "version": "2",
      "name": "Hotel Tiveriopol",
      "tourism": "hotel",
      "id": "node/461663944"
    },
    "geometry": {
      "type": "Point",
      "coordinates": [
        22.6418073,
        41.4396276
      ]
    }
  },
  {
    "type": "Feature",
    "id": "node/461664195",
    "properties": {
      "timestamp": "2013-08-14T18:11:52Z",
      "version": "5",
      "name": "Хотел Илинден",
      "name:en": "Hotel Ilinden",
      "tourism": "hotel",
      "id": "node/461664195"
    },
    "geometry": {
      "type": "Point",
      "coordinates": [
        22.6431437,
        41.436015
      ]
    }
  },
  {
    "type": "Feature",
    "id": "node/462151633",
    "properties": {
      "timestamp": "2012-09-15T23:30:25Z",
      "version": "3",
      "name": "Хотел Сириус",
      "tourism": "hotel",
      "int_name": "Hotel Sirius",
      "id": "node/462151633"
    },
    "geometry": {
      "type": "Point",
      "coordinates": [
        22.6517229,
        41.4128709
      ]
    }
  },
  {
    "type": "Feature",
    "id": "node/466248928",
    "properties": {
      "timestamp": "2012-08-20T10:22:25Z",
      "version": "4",
      "name": "Хотел Изгрев",
      "tourism": "alpine_hut",
      "id": "node/466248928"
    },
    "geometry": {
      "type": "Point",
      "coordinates": [
        22.3551848,
        42.0347813
      ]
    }
  },
  {
    "type": "Feature",
    "id": "node/470409981",
    "properties": {
      "timestamp": "2021-04-11T12:09:56Z",
      "version": "11",
      "amenity": "place_of_worship",
      "building": "monastery",
      "denomination": "orthodox",
      "name": "Манастир Св. Ѓорѓија",
      "population": "0",
      "religion": "christian",
      "tourism": "attraction",
      "wikidata": "Q24084121",
      "wikipedia": "mk:Црква „Св. Ѓорѓи“ - Кучково",
      "id": "node/470409981"
    },
    "geometry": {
      "type": "Point",
      "coordinates": [
        21.3001786,
        42.0690911
      ]
    }
  },
  {
    "type": "Feature",
    "id": "node/470410033",
    "properties": {
      "timestamp": "2020-03-28T06:57:51Z",
      "version": "8",
      "ele": "1645",
      "name": "Љуботен",
      "name:en": "Ljuboten",
      "name:sr": "Планинарски дом Љуботен",
      "tourism": "alpine_hut",
      "alt_name": "Планинарски дом Љуботен",
      "operator": " ИГМ „Вратница“ - Вратница",
      "wikidata": "Q50136317",
      "population": "0",
      "name:sr-Latn": "Planinarski dom Ljuboten",
      "id": "node/470410033"
    },
    "geometry": {
      "type": "Point",
      "coordinates": [
        21.127279,
        42.184771
      ]
    }
  },
  {
    "type": "Feature",
    "id": "node/473902990",
    "properties": {
      "timestamp": "2009-09-07T23:58:52Z",
      "version": "2",
      "name": "WWII Battle - 17th Macedonian Brigade ws Bulgarian army",
      "name:mk": "2ра Светска војна - Битка помеѓу 17та Македонска Ударна Бригада и Бугарската војска",
      "historic": "monument",
      "id": "node/473902990"
    },
    "geometry": {
      "type": "Point",
      "coordinates": [
        22.3507979,
        42.2916094
      ]
    }
  },
  {
    "type": "Feature",
    "id": "node/473903013",
    "properties": {
      "timestamp": "2012-01-04T07:12:41Z",
      "version": "2",
      "name": "Turist",
      "stars": "2",
      "name:mk": "Турист",
      "tourism": "hotel",
      "id": "node/473903013"
    },
    "geometry": {
      "type": "Point",
      "coordinates": [
        22.3350529,
        42.2032723
      ]
    }
  },
  {
    "type": "Feature",
    "id": "node/477199658",
    "properties": {
      "timestamp": "2018-06-28T08:20:53Z",
      "version": "3",
      "name": "Црешово Топче",
      "name:mk": "Црешово Топче",
      "tourism": "hotel",
      "id": "node/477199658"
    },
    "geometry": {
      "type": "Point",
      "coordinates": [
        22.1759186,
        42.0011146
      ]
    }
  },
  {
    "type": "Feature",
    "id": "node/478699817",
    "properties": {
      "timestamp": "2013-09-26T03:24:23Z",
      "version": "2",
      "name": "Музеј на град Берово",
      "name:en": "Berovo Town Museum",
      "tourism": "museum",
      "website": "http://www.berovo.gov.mk/index.php?option=com_content&view=article&id=76&Itemid=117",
      "id": "node/478699817"
    },
    "geometry": {
      "type": "Point",
      "coordinates": [
        22.8566138,
        41.7077548
      ]
    }
  },
  {
    "type": "Feature",
    "id": "node/487181669",
    "properties": {
      "timestamp": "2013-08-20T11:59:29Z",
      "version": "5",
      "name": "Македонија",
      "tourism": "hotel",
      "id": "node/487181669"
    },
    "geometry": {
      "type": "Point",
      "coordinates": [
        21.830927,
        41.6849594
      ]
    }
  },
  {
    "type": "Feature",
    "id": "node/493900207",
    "properties": {
      "timestamp": "2016-11-06T19:11:39Z",
      "version": "4",
      "ele": "1570",
      "name": "Баба",
      "name:en": "Baba",
      "tourism": "viewpoint",
      "int_name": "Baba",
      "id": "node/493900207"
    },
    "geometry": {
      "type": "Point",
      "coordinates": [
        20.8125316,
        40.9539377
      ]
    }
  },
  {
    "type": "Feature",
    "id": "node/495558836",
    "properties": {
      "timestamp": "2017-07-29T17:23:09Z",
      "version": "2",
      "name": "Споменик на Револуцијата",
      "name:en": "Monument of the Revolution",
      "historic": "monument",
      "int_name": "Spomenik na Revolucijata",
      "id": "node/495558836"
    },
    "geometry": {
      "type": "Point",
      "coordinates": [
        20.679835,
        41.1776616
      ]
    }
  },
  {
    "type": "Feature",
    "id": "node/496160455",
    "properties": {
      "timestamp": "2018-06-02T04:16:25Z",
      "version": "4",
      "name": "Хотел Београд",
      "stars": "3",
      "name:en": "Hotel Beograd",
      "tourism": "hotel",
      "int_name": "Hotel BEOGRAD",
      "addr:city": "Струга",
      "addr:street": "8. Ноември",
      "addr:postcode": "6330",
      "internet_access": "wlan",
      "addr:housenumber": "Kej 8-mi noemvri",
      "internet_access:fee": "yes",
      "id": "node/496160455"
    },
    "geometry": {
      "type": "Point",
      "coordinates": [
        20.6785228,
        41.1781482
      ]
    }
  },
  {
    "type": "Feature",
    "id": "node/497549478",
    "properties": {
      "timestamp": "2018-07-08T23:27:55Z",
      "version": "5",
      "name": "Хотел Манастир",
      "name:en": "Manastir Hotel",
      "tourism": "hotel",
      "id": "node/497549478"
    },
    "geometry": {
      "type": "Point",
      "coordinates": [
        22.8587642,
        41.700628
      ]
    }
  },
  {
    "type": "Feature",
    "id": "node/498771166",
    "properties": {
      "timestamp": "2018-06-30T09:12:26Z",
      "version": "4",
      "name": "Одмаралиште Голак",
      "brand": "Gesloten",
      "name:en": "Resort Golak",
      "tourism": "hotel",
      "int_name": "Odmaraliste Golak",
      "id": "node/498771166"
    },
    "geometry": {
      "type": "Point",
      "coordinates": [
        22.7381829,
        41.913516
      ]
    }
  },
  {
    "type": "Feature",
    "id": "node/499130715",
    "properties": {
      "timestamp": "2012-09-03T11:05:52Z",
      "version": "2",
      "name": "Стопанска Банка",
      "tourism": "hotel",
      "int_name": "Stopanska Banka",
      "id": "node/499130715"
    },
    "geometry": {
      "type": "Point",
      "coordinates": [
        20.7352972,
        41.6486816
      ]
    }
  },
  {
    "type": "Feature",
    "id": "node/499130722",
    "properties": {
      "timestamp": "2012-09-03T11:05:49Z",
      "version": "2",
      "name": "Макпетрол",
      "tourism": "hotel",
      "int_name": "Makpetrol",
      "id": "node/499130722"
    },
    "geometry": {
      "type": "Point",
      "coordinates": [
        20.7390308,
        41.6499002
      ]
    }
  },
  {
    "type": "Feature",
    "id": "node/499932156",
    "properties": {
      "timestamp": "2013-11-29T18:22:16Z",
      "version": "2",
      "name": "Мотел Идила",
      "name:en": "Motel Idila",
      "tourism": "motel",
      "int_name": "Motel Idila",
      "id": "node/499932156"
    },
    "geometry": {
      "type": "Point",
      "coordinates": [
        22.9420645,
        41.7299403
      ]
    }
  },
  {
    "type": "Feature",
    "id": "node/526226418",
    "properties": {
      "timestamp": "2013-05-22T16:59:50Z",
      "version": "2",
      "name": "Hotel BELVEDERE",
      "name:en": "Hotel BELVEDERE",
      "tourism": "hotel",
      "int_name": "Hotel BELVEDERE",
      "id": "node/526226418"
    },
    "geometry": {
      "type": "Point",
      "coordinates": [
        20.80234,
        41.0788322
      ]
    }
  },
  {
    "type": "Feature",
    "id": "node/529807304",
    "properties": {
      "timestamp": "2009-10-13T07:50:52Z",
      "version": "3",
      "name": "Balkan Tours",
      "tourism": "information",
      "id": "node/529807304"
    },
    "geometry": {
      "type": "Point",
      "coordinates": [
        22.0113989,
        41.4348962
      ]
    }
  },
  {
    "type": "Feature",
    "id": "node/529811458",
    "properties": {
      "timestamp": "2018-05-02T12:47:08Z",
      "version": "3",
      "name": "Музеј Галерија Кавадарци",
      "name:en": "Muzej Galerija Kavadarci",
      "tourism": "museum",
      "id": "node/529811458"
    },
    "geometry": {
      "type": "Point",
      "coordinates": [
        22.0163228,
        41.4343634
      ]
    }
  },
  {
    "type": "Feature",
    "id": "node/534925163",
    "properties": {
      "timestamp": "2019-10-26T13:12:24Z",
      "version": "7",
      "name": "Куќа на Робевци",
      "name:en": "Robev Family House",
      "name:fr": "Maison de la famille Robev — Musée archéologique de la ville",
      "name:tr": "Robevi Evi",
      "name:zh": "罗贝夫家族宅邸国家博物馆",
      "tourism": "museum",
      "website": "http://muzejohrid.mk/en/house-of-robev-family",
      "building": "house",
      "int_name": "Robev Family House",
      "addr:street": "Цар Самоил",
      "opening_hours": "Tu-Su 09:00-14:00",
      "addr:housenumber": "62",
      "id": "node/534925163"
    },
    "geometry": {
      "type": "Point",
      "coordinates": [
        20.7961416,
        41.112361
      ]
    }
  },
  {
    "type": "Feature",
    "id": "node/548009371",
    "properties": {
      "timestamp": "2013-07-14T21:20:36Z",
      "version": "4",
      "name": "Милениумски Крст",
      "tourism": "viewpoint",
      "id": "node/548009371"
    },
    "geometry": {
      "type": "Point",
      "coordinates": [
        21.3945115,
        41.9651264
      ]
    }
  },
  {
    "type": "Feature",
    "id": "node/548009375",
    "properties": {
      "timestamp": "2020-03-28T06:57:50Z",
      "version": "10",
      "alt": "1060",
      "name": "Планинарски дом „Даре Џамбаз“",
      "name:en": "Dare Dzhambaz",
      "tourism": "alpine_hut",
      "alt_name": "Планинарски Дом Даре Џамбаз",
      "capacity": "35",
      "operator": "ПСД „Бистра“ - Скопје",
      "wikidata": "Q12909583",
      "disused:tourism": "alpine_hut",
      "id": "node/548009375"
    },
    "geometry": {
      "type": "Point",
      "coordinates": [
        21.3950771,
        41.9654096
      ]
    }
  },
  {
    "type": "Feature",
    "id": "node/551084708",
    "properties": {
      "timestamp": "2009-11-03T02:29:16Z",
      "version": "2",
      "tourism": "picnic_site",
      "id": "node/551084708"
    },
    "geometry": {
      "type": "Point",
      "coordinates": [
        21.4090971,
        41.9756118
      ]
    }
  },
  {
    "type": "Feature",
    "id": "node/774764898",
    "properties": {
      "timestamp": "2010-09-11T07:42:10Z",
      "version": "3",
      "name": "Dom na Kultura ..Dragi Tozija..",
      "historic": "monument",
      "id": "node/774764898"
    },
    "geometry": {
      "type": "Point",
      "coordinates": [
        21.0161612,
        41.0882982
      ]
    }
  },
  {
    "type": "Feature",
    "id": "node/774791899",
    "properties": {
      "timestamp": "2013-09-27T12:49:39Z",
      "version": "5",
      "name": "Китка",
      "tourism": "hotel",
      "id": "node/774791899"
    },
    "geometry": {
      "type": "Point",
      "coordinates": [
        21.0134146,
        41.0896892
      ]
    }
  },
  {
    "type": "Feature",
    "id": "node/842630157",
    "properties": {
      "timestamp": "2017-09-15T16:30:00Z",
      "version": "6",
      "name": "Камени кукли",
      "name:en": "Stone town of Kuklica",
      "name:fr": "Kouklitsa",
      "name:pl": "Kamienne Lalki",
      "natural": "rocks",
      "tourism": "attraction",
      "int_name": "Stone dolls",
      "wikidata": "Q3199264",
      "wikipedia": "mk:Камени Кукли",
      "id": "node/842630157"
    },
    "geometry": {
      "type": "Point",
      "coordinates": [
        22.0553053,
        42.1055335
      ]
    }
  },
  {
    "type": "Feature",
    "id": "node/842635213",
    "properties": {
      "timestamp": "2012-09-18T14:41:30Z",
      "version": "7",
      "name": "Гиновци",
      "name:mk": "Гиновци",
      "tourism": "picnic_site",
      "int_name": "Ginovci",
      "id": "node/842635213"
    },
    "geometry": {
      "type": "Point",
      "coordinates": [
        22.1633104,
        42.1824239
      ]
    }
  },
  {
    "type": "Feature",
    "id": "node/874492834",
    "properties": {
      "timestamp": "2010-08-22T21:45:55Z",
      "version": "1",
      "tourism": "alpine_hut",
      "id": "node/874492834"
    },
    "geometry": {
      "type": "Point",
      "coordinates": [
        21.1938677,
        41.4360595
      ]
    }
  },
  {
    "type": "Feature",
    "id": "node/874493225",
    "properties": {
      "timestamp": "2010-08-22T21:46:22Z",
      "version": "1",
      "tourism": "alpine_hut",
      "id": "node/874493225"
    },
    "geometry": {
      "type": "Point",
      "coordinates": [
        21.1926768,
        41.4362042
      ]
    }
  },
  {
    "type": "Feature",
    "id": "node/908273421",
    "properties": {
      "timestamp": "2019-01-23T21:55:18Z",
      "version": "19",
      "name": "Воин на коњ",
      "layer": "2",
      "name:en": "Warrior on a Horse",
      "name:fr": "Statue du guerrier à cheval",
      "name:pl": "Wojownik na koniu",
      "name:tr": "Büyük İskender Heykeli",
      "name:uk": "Вершник на коні",
      "name:zh": "马上的斗士",
      "tourism": "artwork",
      "alt_name": "Александар Македонски",
      "historic": "monument",
      "int_name": "Voin na Konj",
      "memorial": "statue",
      "wikidata": "Q3497603",
      "wikipedia": "mk:Воин на коњ (Скопје)",
      "start_date": "08.09.2011",
      "artist_name": "Валентина Стефановска",
      "artwork_type": "statue",
      "id": "node/908273421"
    },
    "geometry": {
      "type": "Point",
      "coordinates": [
        21.4314474,
        41.9959035
      ]
    }
  },
  {
    "type": "Feature",
    "id": "node/959317641",
    "properties": {
      "timestamp": "2012-12-02T01:25:27Z",
      "version": "4",
      "name": "Хотел НЕДА - Галичник",
      "tourism": "hotel",
      "id": "node/959317641"
    },
    "geometry": {
      "type": "Point",
      "coordinates": [
        20.6481197,
        41.5924377
      ]
    }
  },
  {
    "type": "Feature",
    "id": "node/1012247331",
    "properties": {
      "timestamp": "2013-12-29T02:33:35Z",
      "version": "7",
      "name": "LUMA",
      "amenity": "restaurant",
      "cuisine": "burger",
      "tourism": "motel",
      "capacity": "100",
      "id": "node/1012247331"
    },
    "geometry": {
      "type": "Point",
      "coordinates": [
        21.1874306,
        42.1656891
      ]
    }
  },
  {
    "type": "Feature",
    "id": "node/1234758726",
    "properties": {
      "timestamp": "2013-09-26T04:17:07Z",
      "version": "2",
      "name": "На Филип Кашчата",
      "tourism": "chalet",
      "id": "node/1234758726"
    },
    "geometry": {
      "type": "Point",
      "coordinates": [
        22.8518197,
        41.7107367
      ]
    }
  },
  {
    "type": "Feature",
    "id": "node/1272898175",
    "properties": {
      "timestamp": "2016-05-02T13:16:18Z",
      "version": "2",
      "name": "Museum Teracotta",
      "tourism": "museum",
      "addr:housenumber": "1a",
      "id": "node/1272898175"
    },
    "geometry": {
      "type": "Point",
      "coordinates": [
        22.5049622,
        41.8841902
      ]
    }
  },
  {
    "type": "Feature",
    "id": "node/1378197244",
    "properties": {
      "timestamp": "2021-02-22T11:27:41Z",
      "version": "7",
      "email": "info@orangeinn.com.mk",
      "name": "Hotel Orange Inn",
      "phone": "+38922772254",
      "tourism": "hotel",
      "website": "https://www.booking.com/hotel/mk/orange-inn.en-gb.html?sid=1ddd35f0ef4f22510d37f152a78ce4a3",
      "id": "node/1378197244"
    },
    "geometry": {
      "type": "Point",
      "coordinates": [
        21.440152,
        41.980192
      ]
    }
  },
  {
    "type": "Feature",
    "id": "node/1381580746",
    "properties": {
      "timestamp": "2011-08-01T09:03:24Z",
      "version": "1",
      "name": "Хостел Хостел",
      "tourism": "hostel",
      "id": "node/1381580746"
    },
    "geometry": {
      "type": "Point",
      "coordinates": [
        21.4340308,
        41.9842736
      ]
    }
  },
  {
    "type": "Feature",
    "id": "node/1381585163",
    "properties": {
      "timestamp": "2017-11-13T16:10:45Z",
      "version": "2",
      "name": "Сити Хостел",
      "phone": "+389 70 226 165",
      "name:en": "City Hostel",
      "tourism": "hostel",
      "addr:city": "Cкoпje",
      "addr:street": "Томе Арсовски",
      "addr:postcode": "1000",
      "addr:housenumber": "6",
      "id": "node/1381585163"
    },
    "geometry": {
      "type": "Point",
      "coordinates": [
        21.4321318,
        41.9849555
      ]
    }
  },
  {
    "type": "Feature",
    "id": "node/1381642413",
    "properties": {
      "timestamp": "2015-11-05T11:12:53Z",
      "version": "2",
      "name": "Хотел Турена",
      "tourism": "hotel",
      "id": "node/1381642413"
    },
    "geometry": {
      "type": "Point",
      "coordinates": [
        21.4249793,
        41.9801123
      ]
    }
  },
  {
    "type": "Feature",
    "id": "node/1381642430",
    "properties": {
      "timestamp": "2015-11-12T13:37:54Z",
      "version": "3",
      "name": "Александар",
      "name:en": "Aleksandar",
      "tourism": "hotel",
      "addr:street": "Востаничка",
      "addr:housenumber": "24",
      "id": "node/1381642430"
    },
    "geometry": {
      "type": "Point",
      "coordinates": [
        21.4262323,
        41.9843835
      ]
    }
  },
  {
    "type": "Feature",
    "id": "node/1440469233",
    "properties": {
      "timestamp": "2019-06-14T13:37:53Z",
      "version": "5",
      "name": "Вила Албина",
      "tourism": "guest_house",
      "int_name": "Vila Albina",
      "id": "node/1440469233"
    },
    "geometry": {
      "type": "Point",
      "coordinates": [
        20.7944769,
        41.1119117
      ]
    }
  },
  {
    "type": "Feature",
    "id": "node/1444764994",
    "properties": {
      "timestamp": "2021-06-20T16:10:33Z",
      "version": "2",
      "description": "Wooden Platform",
      "ele": "1936",
      "name": "Видиковец",
      "name:en": "Vidikovec (Viewpoint)",
      "tourism": "viewpoint",
      "id": "node/1444764994"
    },
    "geometry": {
      "type": "Point",
      "coordinates": [
        21.2059164,
        41.0246942
      ]
    }
  },
  {
    "type": "Feature",
    "id": "node/1444764999",
    "properties": {
      "timestamp": "2011-09-24T17:15:15Z",
      "version": "1",
      "tourism": "picnic_site",
      "id": "node/1444764999"
    },
    "geometry": {
      "type": "Point",
      "coordinates": [
        21.2193163,
        41.0332126
      ]
    }
  },
  {
    "type": "Feature",
    "id": "node/1444765000",
    "properties": {
      "timestamp": "2011-09-24T17:15:15Z",
      "version": "1",
      "tourism": "picnic_site",
      "id": "node/1444765000"
    },
    "geometry": {
      "type": "Point",
      "coordinates": [
        21.20859,
        41.023187
      ]
    }
  },
  {
    "type": "Feature",
    "id": "node/1444835404",
    "properties": {
      "timestamp": "2011-09-24T18:38:59Z",
      "version": "1",
      "tourism": "picnic_site",
      "id": "node/1444835404"
    },
    "geometry": {
      "type": "Point",
      "coordinates": [
        21.1924687,
        41.0302031
      ]
    }
  },
  {
    "type": "Feature",
    "id": "node/1445504654",
    "properties": {
      "timestamp": "2011-09-25T14:58:34Z",
      "version": "1",
      "tourism": "picnic_site",
      "id": "node/1445504654"
    },
    "geometry": {
      "type": "Point",
      "coordinates": [
        21.5420496,
        41.3887174
      ]
    }
  },
  {
    "type": "Feature",
    "id": "node/1452854966",
    "properties": {
      "timestamp": "2011-10-02T20:12:05Z",
      "version": "1",
      "tourism": "viewpoint",
      "id": "node/1452854966"
    },
    "geometry": {
      "type": "Point",
      "coordinates": [
        20.6409839,
        41.5928611
      ]
    }
  },
  {
    "type": "Feature",
    "id": "node/1452855031",
    "properties": {
      "timestamp": "2012-12-02T01:25:27Z",
      "version": "3",
      "hiking": "yes",
      "tourism": "information",
      "information": "guidepost",
      "id": "node/1452855031"
    },
    "geometry": {
      "type": "Point",
      "coordinates": [
        20.6480979,
        41.5923442
      ]
    }
  },
  {
    "type": "Feature",
    "id": "node/1452855136",
    "properties": {
      "timestamp": "2011-10-02T20:12:10Z",
      "version": "1",
      "tourism": "picnic_site",
      "id": "node/1452855136"
    },
    "geometry": {
      "type": "Point",
      "coordinates": [
        20.56103,
        41.6358851
      ]
    }
  },
  {
    "type": "Feature",
    "id": "node/1452855153",
    "properties": {
      "timestamp": "2013-07-08T11:27:27Z",
      "version": "3",
      "fax": "042 / 470 999",
      "name": "Хотел Туто",
      "email": "info@tutto.com.mk",
      "phone": "042 / 470 999",
      "tourism": "hotel",
      "website": "www.tutto.com.mk",
      "int_name": "Hotel Tutto",
      "internet_access": "yes",
      "id": "node/1452855153"
    },
    "geometry": {
      "type": "Point",
      "coordinates": [
        20.6246531,
        41.5898039
      ]
    }
  },
  {
    "type": "Feature",
    "id": "node/1452855181",
    "properties": {
      "timestamp": "2011-10-02T20:12:11Z",
      "version": "1",
      "tourism": "picnic_site",
      "id": "node/1452855181"
    },
    "geometry": {
      "type": "Point",
      "coordinates": [
        20.583623,
        41.626659
      ]
    }
  },
  {
    "type": "Feature",
    "id": "node/1475328742",
    "properties": {
      "timestamp": "2013-07-08T21:11:22Z",
      "version": "3",
      "name": "Rimska crkva",
      "is_in": "Orman",
      "historic": "archaeological_site",
      "id": "node/1475328742"
    },
    "geometry": {
      "type": "Point",
      "coordinates": [
        21.3527926,
        42.0586697
      ]
    }
  },
  {
    "type": "Feature",
    "id": "node/1475331129",
    "properties": {
      "timestamp": "2019-05-30T13:59:55Z",
      "version": "3",
      "name": "Давина Кула",
      "name:en": "Davina Kula",
      "historic": "archaeological_site",
      "int_name": "Davina Kula",
      "site_type": "fortification",
      "id": "node/1475331129"
    },
    "geometry": {
      "type": "Point",
      "coordinates": [
        21.3548716,
        42.0843452
      ]
    }
  },
  {
    "type": "Feature",
    "id": "node/1475333181",
    "properties": {
      "timestamp": "2012-08-13T11:31:00Z",
      "version": "2",
      "name": "Голема Кула - Кучково",
      "historic": "archaeological_site",
      "id": "node/1475333181"
    },
    "geometry": {
      "type": "Point",
      "coordinates": [
        21.2786993,
        42.0587494
      ]
    }
  },
  {
    "type": "Feature",
    "id": "node/1475333182",
    "properties": {
      "timestamp": "2012-08-13T11:31:01Z",
      "version": "2",
      "name": "Мала Кула - Кучково",
      "historic": "archaeological_site",
      "id": "node/1475333182"
    },
    "geometry": {
      "type": "Point",
      "coordinates": [
        21.2844339,
        42.0585741
      ]
    }
  },
  {
    "type": "Feature",
    "id": "node/1499057720",
    "properties": {
      "timestamp": "2013-04-21T19:58:28Z",
      "version": "2",
      "name": "Hotel City Central International",
      "source": "GPS",
      "tourism": "hotel",
      "id": "node/1499057720"
    },
    "geometry": {
      "type": "Point",
      "coordinates": [
        21.4329531,
        41.9948912
      ]
    }
  },
  {
    "type": "Feature",
    "id": "node/1501849857",
    "properties": {
      "timestamp": "2013-07-13T23:04:34Z",
      "version": "3",
      "name": "De Lux Apartments Ohrid",
      "source": "Booking.com",
      "tourism": "hotel",
      "id": "node/1501849857"
    },
    "geometry": {
      "type": "Point",
      "coordinates": [
        20.8059275,
        41.1120923
      ]
    }
  },
  {
    "type": "Feature",
    "id": "node/1506621062",
    "properties": {
      "timestamp": "2011-11-17T20:32:16Z",
      "version": "1",
      "tourism": "viewpoint",
      "id": "node/1506621062"
    },
    "geometry": {
      "type": "Point",
      "coordinates": [
        21.4463252,
        41.6407448
      ]
    }
  },
  {
    "type": "Feature",
    "id": "node/1506625615",
    "properties": {
      "timestamp": "2015-07-24T13:51:20Z",
      "version": "2",
      "name": "Рибник Нежилово",
      "tourism": "motel",
      "id": "node/1506625615"
    },
    "geometry": {
      "type": "Point",
      "coordinates": [
        21.4530414,
        41.6517445
      ]
    }
  },
  {
    "type": "Feature",
    "id": "node/1507082598",
    "properties": {
      "timestamp": "2021-06-20T15:53:37Z",
      "version": "2",
      "ele": "1744",
      "name": "Jorgov Kamen",
      "tourism": "viewpoint",
      "id": "node/1507082598"
    },
    "geometry": {
      "type": "Point",
      "coordinates": [
        21.2228278,
        41.0214101
      ]
    }
  },
  {
    "type": "Feature",
    "id": "node/1507336821",
    "properties": {
      "timestamp": "2011-11-18T14:10:56Z",
      "version": "1",
      "tourism": "viewpoint",
      "id": "node/1507336821"
    },
    "geometry": {
      "type": "Point",
      "coordinates": [
        22.4025821,
        41.9716837
      ]
    }
  },
  {
    "type": "Feature",
    "id": "node/1542347444",
    "properties": {
      "timestamp": "2012-08-22T08:35:51Z",
      "version": "2",
      "ele": "883",
      "name": "Црн Врв",
      "source": "Bing",
      "natural": "peak",
      "tourism": "viewpoint",
      "id": "node/1542347444"
    },
    "geometry": {
      "type": "Point",
      "coordinates": [
        21.738296,
        41.8594296
      ]
    }
  },
  {
    "type": "Feature",
    "id": "node/1577485214",
    "properties": {
      "timestamp": "2020-01-15T14:38:25Z",
      "version": "2",
      "name": "Мрамор",
      "name:en": "Mramor",
      "tourism": "hotel",
      "alt_name": "Hotel Mramor",
      "id": "node/1577485214"
    },
    "geometry": {
      "type": "Point",
      "coordinates": [
        21.3755273,
        42.0055458
      ]
    }
  },
  {
    "type": "Feature",
    "id": "node/1611964677",
    "properties": {
      "timestamp": "2021-03-24T21:35:49Z",
      "version": "5",
      "boundary": "marker",
      "ele": "1337",
      "historic": "boundary_stone",
      "marker": "stone",
      "name": "Шуплив Камен",
      "name:sr": "Шупаљ камак",
      "name:sr-Latn": "Šupalj kamak",
      "natural": "peak",
      "ref": "106",
      "id": "node/1611964677"
    },
    "geometry": {
      "type": "Point",
      "coordinates": [
        22.3602706,
        42.3111141
      ]
    }
  },
  {
    "type": "Feature",
    "id": "node/1611964682",
    "properties": {
      "timestamp": "2013-05-25T23:41:03Z",
      "version": "3",
      "ele": "1337.4",
      "ref": "107",
      "marker": "stone",
      "boundary": "marker",
      "historic": "boundary_stone",
      "id": "node/1611964682"
    },
    "geometry": {
      "type": "Point",
      "coordinates": [
        22.3600516,
        42.3130866
      ]
    }
  },
  {
    "type": "Feature",
    "id": "node/1611964719",
    "properties": {
      "timestamp": "2013-05-25T23:41:03Z",
      "version": "3",
      "ele": "1268.7",
      "ref": "108",
      "marker": "stone",
      "boundary": "marker",
      "historic": "boundary_stone",
      "id": "node/1611964719"
    },
    "geometry": {
      "type": "Point",
      "coordinates": [
        22.3658969,
        42.3239084
      ]
    }
  },
  {
    "type": "Feature",
    "id": "node/1612141331",
    "properties": {
      "timestamp": "2013-04-27T09:02:28Z",
      "version": "2",
      "ele": "1027.2",
      "name": "4",
      "marker": "stone",
      "boundary": "marker",
      "historic": "boundary_stone",
      "id": "node/1612141331"
    },
    "geometry": {
      "type": "Point",
      "coordinates": [
        22.9655583,
        41.3534928
      ]
    }
  },
  {
    "type": "Feature",
    "id": "node/1612141342",
    "properties": {
      "timestamp": "2013-04-27T09:02:28Z",
      "version": "2",
      "name": "5",
      "marker": "stone",
      "boundary": "marker",
      "historic": "boundary_stone",
      "id": "node/1612141342"
    },
    "geometry": {
      "type": "Point",
      "coordinates": [
        22.9650202,
        41.3635373
      ]
    }
  },
  {
    "type": "Feature",
    "id": "node/1612141343",
    "properties": {
      "timestamp": "2013-04-27T09:02:28Z",
      "version": "2",
      "name": "6",
      "marker": "stone",
      "boundary": "marker",
      "historic": "boundary_stone",
      "id": "node/1612141343"
    },
    "geometry": {
      "type": "Point",
      "coordinates": [
        22.964952,
        41.3649798
      ]
    }
  },
  {
    "type": "Feature",
    "id": "node/1612141345",
    "properties": {
      "timestamp": "2013-04-27T09:02:28Z",
      "version": "2",
      "name": "7",
      "marker": "stone",
      "boundary": "marker",
      "historic": "boundary_stone",
      "id": "node/1612141345"
    },
    "geometry": {
      "type": "Point",
      "coordinates": [
        22.9645721,
        41.3667003
      ]
    }
  },
  {
    "type": "Feature",
    "id": "node/1612141347",
    "properties": {
      "timestamp": "2013-04-27T09:02:28Z",
      "version": "2",
      "name": "8",
      "marker": "stone",
      "boundary": "marker",
      "historic": "boundary_stone",
      "id": "node/1612141347"
    },
    "geometry": {
      "type": "Point",
      "coordinates": [
        22.9643552,
        41.3682443
      ]
    }
  },
  {
    "type": "Feature",
    "id": "node/1612141348",
    "properties": {
      "timestamp": "2013-04-27T09:02:28Z",
      "version": "2",
      "name": "9",
      "marker": "stone",
      "boundary": "marker",
      "historic": "boundary_stone",
      "id": "node/1612141348"
    },
    "geometry": {
      "type": "Point",
      "coordinates": [
        22.9640182,
        41.3692174
      ]
    }
  },
  {
    "type": "Feature",
    "id": "node/1612141349",
    "properties": {
      "timestamp": "2013-04-27T09:02:21Z",
      "version": "2",
      "name": "10",
      "marker": "stone",
      "boundary": "marker",
      "historic": "boundary_stone",
      "id": "node/1612141349"
    },
    "geometry": {
      "type": "Point",
      "coordinates": [
        22.9637614,
        41.3704535
      ]
    }
  },
  {
    "type": "Feature",
    "id": "node/1612141350",
    "properties": {
      "timestamp": "2013-04-27T09:02:21Z",
      "version": "2",
      "name": "11",
      "marker": "stone",
      "boundary": "marker",
      "historic": "boundary_stone",
      "id": "node/1612141350"
    },
    "geometry": {
      "type": "Point",
      "coordinates": [
        22.963565,
        41.371345
      ]
    }
  },
  {
    "type": "Feature",
    "id": "node/1612141351",
    "properties": {
      "timestamp": "2013-04-27T09:02:21Z",
      "version": "2",
      "name": "12",
      "marker": "stone",
      "boundary": "marker",
      "historic": "boundary_stone",
      "id": "node/1612141351"
    },
    "geometry": {
      "type": "Point",
      "coordinates": [
        22.9631755,
        41.3721284
      ]
    }
  },
  {
    "type": "Feature",
    "id": "node/1612141352",
    "properties": {
      "timestamp": "2013-04-27T09:02:21Z",
      "version": "2",
      "name": "13",
      "marker": "stone",
      "boundary": "marker",
      "historic": "boundary_stone",
      "id": "node/1612141352"
    },
    "geometry": {
      "type": "Point",
      "coordinates": [
        22.9630541,
        41.3728977
      ]
    }
  },
  {
    "type": "Feature",
    "id": "node/1612141353",
    "properties": {
      "timestamp": "2013-04-27T09:02:21Z",
      "version": "2",
      "name": "14",
      "marker": "stone",
      "boundary": "marker",
      "historic": "boundary_stone",
      "id": "node/1612141353"
    },
    "geometry": {
      "type": "Point",
      "coordinates": [
        22.9628253,
        41.3739433
      ]
    }
  },
  {
    "type": "Feature",
    "id": "node/1612141354",
    "properties": {
      "timestamp": "2013-04-27T09:02:22Z",
      "version": "2",
      "name": "15",
      "marker": "stone",
      "boundary": "marker",
      "historic": "boundary_stone",
      "id": "node/1612141354"
    },
    "geometry": {
      "type": "Point",
      "coordinates": [
        22.9632889,
        41.3755256
      ]
    }
  },
  {
    "type": "Feature",
    "id": "node/1612141357",
    "properties": {
      "timestamp": "2013-04-27T09:02:22Z",
      "version": "2",
      "ele": "270.1",
      "name": "16",
      "marker": "stone",
      "boundary": "marker",
      "historic": "boundary_stone",
      "id": "node/1612141357"
    },
    "geometry": {
      "type": "Point",
      "coordinates": [
        22.9621967,
        41.3786524
      ]
    }
  },
  {
    "type": "Feature",
    "id": "node/1612141363",
    "properties": {
      "timestamp": "2013-04-27T09:02:24Z",
      "version": "2",
      "name": "19",
      "marker": "stone",
      "boundary": "marker",
      "historic": "boundary_stone",
      "id": "node/1612141363"
    },
    "geometry": {
      "type": "Point",
      "coordinates": [
        22.9628726,
        41.3839589
      ]
    }
  },
  {
    "type": "Feature",
    "id": "node/1612141367",
    "properties": {
      "timestamp": "2013-04-27T09:02:24Z",
      "version": "2",
      "name": "20",
      "marker": "stone",
      "boundary": "marker",
      "historic": "boundary_stone",
      "id": "node/1612141367"
    },
    "geometry": {
      "type": "Point",
      "coordinates": [
        22.9631941,
        41.3859009
      ]
    }
  },
  {
    "type": "Feature",
    "id": "node/1612141373",
    "properties": {
      "timestamp": "2013-04-27T09:02:24Z",
      "version": "2",
      "name": "21",
      "marker": "stone",
      "boundary": "marker",
      "historic": "boundary_stone",
      "id": "node/1612141373"
    },
    "geometry": {
      "type": "Point",
      "coordinates": [
        22.9642834,
        41.3891975
      ]
    }
  },
  {
    "type": "Feature",
    "id": "node/1612141381",
    "properties": {
      "timestamp": "2013-04-27T09:02:27Z",
      "version": "2",
      "name": "22",
      "marker": "stone",
      "boundary": "marker",
      "historic": "boundary_stone",
      "id": "node/1612141381"
    },
    "geometry": {
      "type": "Point",
      "coordinates": [
        22.9667134,
        41.3931081
      ]
    }
  },
  {
    "type": "Feature",
    "id": "node/1612141385",
    "properties": {
      "timestamp": "2013-04-27T09:02:27Z",
      "version": "2",
      "name": "25",
      "marker": "stone",
      "boundary": "marker",
      "historic": "boundary_stone",
      "id": "node/1612141385"
    },
    "geometry": {
      "type": "Point",
      "coordinates": [
        22.966126,
        41.3964028
      ]
    }
  },
  {
    "type": "Feature",
    "id": "node/1612141398",
    "properties": {
      "timestamp": "2013-04-27T09:02:27Z",
      "version": "2",
      "ele": "358.6",
      "name": "27",
      "marker": "stone",
      "boundary": "marker",
      "historic": "boundary_stone",
      "id": "node/1612141398"
    },
    "geometry": {
      "type": "Point",
      "coordinates": [
        22.9615881,
        41.4070803
      ]
    }
  },
  {
    "type": "Feature",
    "id": "node/1612141411",
    "properties": {
      "timestamp": "2013-04-27T09:02:28Z",
      "version": "2",
      "ele": "454.9",
      "name": "28",
      "marker": "stone",
      "boundary": "marker",
      "historic": "boundary_stone",
      "id": "node/1612141411"
    },
    "geometry": {
      "type": "Point",
      "coordinates": [
        22.9520216,
        41.4174975
      ]
    }
  },
  {
    "type": "Feature",
    "id": "node/1612141458",
    "properties": {
      "timestamp": "2013-04-27T09:02:28Z",
      "version": "2",
      "ele": "771.5",
      "name": "30",
      "marker": "stone",
      "boundary": "marker",
      "historic": "boundary_stone",
      "id": "node/1612141458"
    },
    "geometry": {
      "type": "Point",
      "coordinates": [
        22.9746504,
        41.4400834
      ]
    }
  },
  {
    "type": "Feature",
    "id": "node/1612143468",
    "properties": {
      "timestamp": "2021-10-14T21:32:20Z",
      "version": "3",
      "boundary": "marker",
      "ele": "1748.8",
      "historic": "boundary_stone",
      "marker": "stone",
      "name": "Куцолиница / 86",
      "natural": "peak",
      "id": "node/1612143468"
    },
    "geometry": {
      "type": "Point",
      "coordinates": [
        22.5899869,
        42.1102442
      ]
    }
  },
  {
    "type": "Feature",
    "id": "node/1612143496",
    "properties": {
      "timestamp": "2013-04-29T07:29:26Z",
      "version": "2",
      "ele": "1751.78",
      "name": "87",
      "marker": "stone",
      "boundary": "marker",
      "historic": "boundary_stone",
      "id": "node/1612143496"
    },
    "geometry": {
      "type": "Point",
      "coordinates": [
        22.5770819,
        42.1119645
      ]
    }
  },
  {
    "type": "Feature",
    "id": "node/1612143672",
    "properties": {
      "timestamp": "2013-04-29T07:29:26Z",
      "version": "2",
      "name": "90",
      "marker": "stone",
      "boundary": "marker",
      "historic": "boundary_stone",
      "id": "node/1612143672"
    },
    "geometry": {
      "type": "Point",
      "coordinates": [
        22.5104573,
        42.1551091
      ]
    }
  },
  {
    "type": "Feature",
    "id": "node/1612155052",
    "properties": {
      "timestamp": "2021-09-16T23:36:51Z",
      "version": "3",
      "boundary": "marker",
      "ele": "1327.6",
      "historic": "boundary_stone",
      "marker": "stone",
      "name": "Китка",
      "natural": "peak",
      "ref": "105",
      "id": "node/1612155052"
    },
    "geometry": {
      "type": "Point",
      "coordinates": [
        22.3705411,
        42.3089612
      ]
    }
  },
  {
    "type": "Feature",
    "id": "node/1668655322",
    "properties": {
      "timestamp": "2012-03-10T13:15:29Z",
      "version": "1",
      "tourism": "viewpoint",
      "id": "node/1668655322"
    },
    "geometry": {
      "type": "Point",
      "coordinates": [
        20.9602621,
        42.0193935
      ]
    }
  },
  {
    "type": "Feature",
    "id": "node/1696045002",
    "properties": {
      "timestamp": "2020-04-26T09:57:10Z",
      "version": "10",
      "ele": "2251.4",
      "name": "Руен",
      "marker": "stone",
      "source": "bgtopomaps",
      "name:de": "Ruen",
      "name:el": "κορυφή Ρούεν",
      "name:en": "Ruen",
      "name:fr": "Pic Rouen",
      "name:mk": "Руен",
      "natural": "peak",
      "alt_name": "PUEH",
      "boundary": "marker",
      "historic": "boundary_stone",
      "int_name": "Ruen",
      "man_made": "survey_point",
      "wikidata": "Q46499",
      "wikipedia": "bg:Руен",
      "importance": "Bulgarian 100",
      "prominence": "1416",
      "id": "node/1696045002"
    },
    "geometry": {
      "type": "Point",
      "coordinates": [
        22.5162744,
        42.1580093
      ]
    }
  },
  {
    "type": "Feature",
    "id": "node/1708412126",
    "properties": {
      "timestamp": "2012-04-22T03:40:43Z",
      "version": "2",
      "name": "Zena",
      "layer": "2",
      "name:mk": "Жена",
      "historic": "monument",
      "id": "node/1708412126"
    },
    "geometry": {
      "type": "Point",
      "coordinates": [
        21.7200501,
        42.1355189
      ]
    }
  },
  {
    "type": "Feature",
    "id": "node/1734593430",
    "properties": {
      "timestamp": "2012-04-28T22:13:20Z",
      "version": "1",
      "name": "Gradiste kaj s.Brazda",
      "historic": "archaeological_site",
      "id": "node/1734593430"
    },
    "geometry": {
      "type": "Point",
      "coordinates": [
        21.398848,
        42.0766913
      ]
    }
  },
  {
    "type": "Feature",
    "id": "node/1786613380",
    "properties": {
      "timestamp": "2016-05-17T14:30:06Z",
      "version": "5",
      "ele": "1554",
      "name": "Копанки",
      "source": "user knowledge",
      "name:en": "Kopanki",
      "tourism": "alpine_hut",
      "alt_name": "Планинарски Дом Копанки",
      "int_name": "Kopanki",
      "operator": "ПД „Пелистер“ - Битола",
      "abandoned": "yes",
      "alt_name:en": "Planinarski Dom Kopanki",
      "id": "node/1786613380"
    },
    "geometry": {
      "type": "Point",
      "coordinates": [
        21.2190362,
        41.0330959
      ]
    }
  },
  {
    "type": "Feature",
    "id": "node/1790311354",
    "properties": {
      "timestamp": "2013-09-04T11:03:29Z",
      "version": "3",
      "tourism": "viewpoint",
      "id": "node/1790311354"
    },
    "geometry": {
      "type": "Point",
      "coordinates": [
        22.8125854,
        41.376715
      ]
    }
  },
  {
    "type": "Feature",
    "id": "node/1790358584",
    "properties": {
      "timestamp": "2012-06-16T18:49:44Z",
      "version": "1",
      "tourism": "motel",
      "id": "node/1790358584"
    },
    "geometry": {
      "type": "Point",
      "coordinates": [
        22.798659,
        41.3790695
      ]
    }
  },
  {
    "type": "Feature",
    "id": "node/1790711188",
    "properties": {
      "timestamp": "2012-10-01T16:35:14Z",
      "version": "3",
      "historic": "monument",
      "id": "node/1790711188"
    },
    "geometry": {
      "type": "Point",
      "coordinates": [
        22.9526962,
        41.3962021
      ]
    }
  },
  {
    "type": "Feature",
    "id": "node/1791473966",
    "properties": {
      "timestamp": "2012-06-17T10:50:43Z",
      "version": "1",
      "tourism": "hotel",
      "id": "node/1791473966"
    },
    "geometry": {
      "type": "Point",
      "coordinates": [
        22.7552453,
        41.3828291
      ]
    }
  },
  {
    "type": "Feature",
    "id": "node/1791481260",
    "properties": {
      "timestamp": "2012-06-17T11:01:01Z",
      "version": "1",
      "tourism": "motel",
      "id": "node/1791481260"
    },
    "geometry": {
      "type": "Point",
      "coordinates": [
        22.7045516,
        41.440216
      ]
    }
  },
  {
    "type": "Feature",
    "id": "node/1791491746",
    "properties": {
      "timestamp": "2012-06-17T11:14:38Z",
      "version": "1",
      "historic": "memorial",
      "id": "node/1791491746"
    },
    "geometry": {
      "type": "Point",
      "coordinates": [
        22.7529708,
        41.3867493
      ]
    }
  },
  {
    "type": "Feature",
    "id": "node/1791534907",
    "properties": {
      "timestamp": "2012-06-17T11:59:36Z",
      "version": "1",
      "tourism": "hotel",
      "id": "node/1791534907"
    },
    "geometry": {
      "type": "Point",
      "coordinates": [
        22.7531478,
        41.3817021
      ]
    }
  },
  {
    "type": "Feature",
    "id": "node/1791598048",
    "properties": {
      "timestamp": "2012-06-17T12:55:37Z",
      "version": "1",
      "tourism": "hostel",
      "id": "node/1791598048"
    },
    "geometry": {
      "type": "Point",
      "coordinates": [
        22.7378095,
        41.2516373
      ]
    }
  },
  {
    "type": "Feature",
    "id": "node/1791598051",
    "properties": {
      "timestamp": "2012-06-17T12:55:37Z",
      "version": "1",
      "tourism": "chalet",
      "id": "node/1791598051"
    },
    "geometry": {
      "type": "Point",
      "coordinates": [
        22.7177144,
        41.2403357
      ]
    }
  },
  {
    "type": "Feature",
    "id": "node/1791598057",
    "properties": {
      "timestamp": "2012-09-16T22:13:34Z",
      "version": "2",
      "name": "Казино Хит",
      "amenity": "casino",
      "name:en": "Hit Casino",
      "tourism": "hotel",
      "int_name": "Hit Casino",
      "id": "node/1791598057"
    },
    "geometry": {
      "type": "Point",
      "coordinates": [
        22.7420313,
        41.1725653
      ]
    }
  },
  {
    "type": "Feature",
    "id": "node/1791598060",
    "properties": {
      "timestamp": "2012-06-17T12:55:37Z",
      "version": "1",
      "tourism": "caravan_site",
      "id": "node/1791598060"
    },
    "geometry": {
      "type": "Point",
      "coordinates": [
        22.7161909,
        41.2409569
      ]
    }
  },
  {
    "type": "Feature",
    "id": "node/1793089695",
    "properties": {
      "timestamp": "2012-06-18T13:11:53Z",
      "version": "1",
      "tourism": "information",
      "information": "office",
      "id": "node/1793089695"
    },
    "geometry": {
      "type": "Point",
      "coordinates": [
        21.2209179,
        41.0396643
      ]
    }
  },
  {
    "type": "Feature",
    "id": "node/1804963726",
    "properties": {
      "timestamp": "2019-05-22T06:04:49Z",
      "version": "3",
      "name": "Хотелски комплекс „Свети Наум“",
      "tourism": "hotel",
      "int_name": "Hotel complex Saint Naum",
      "id": "node/1804963726"
    },
    "geometry": {
      "type": "Point",
      "coordinates": [
        20.7410763,
        40.9140062
      ]
    }
  },
  {
    "type": "Feature",
    "id": "node/1804963753",
    "properties": {
      "timestamp": "2019-09-11T14:46:42Z",
      "version": "7",
      "name": "Црква Света Петка",
      "amenity": "place_of_worship",
      "name:en": "Saint Petka Church",
      "tourism": "attraction",
      "building": "church",
      "religion": "christian",
      "denomination": "orthodox",
      "id": "node/1804963753"
    },
    "geometry": {
      "type": "Point",
      "coordinates": [
        20.7415162,
        40.9131005
      ]
    }
  },
  {
    "type": "Feature",
    "id": "node/1810974666",
    "properties": {
      "timestamp": "2012-07-03T07:49:57Z",
      "version": "1",
      "tourism": "information",
      "information": "board",
      "id": "node/1810974666"
    },
    "geometry": {
      "type": "Point",
      "coordinates": [
        21.1842413,
        40.9270314
      ]
    }
  },
  {
    "type": "Feature",
    "id": "node/1812296549",
    "properties": {
      "timestamp": "2012-07-04T09:58:29Z",
      "version": "1",
      "name": "Hotel MVR",
      "source": "Bing",
      "tourism": "hotel",
      "id": "node/1812296549"
    },
    "geometry": {
      "type": "Point",
      "coordinates": [
        21.0846302,
        40.9299992
      ]
    }
  },
  {
    "type": "Feature",
    "id": "node/1831180502",
    "properties": {
      "timestamp": "2019-08-20T16:44:19Z",
      "version": "8",
      "name": "Манастир Св. Андреј",
      "amenity": "place_of_worship",
      "name:en": "Monastery St. Andrej",
      "name:tr": "Monastery St. Andrej",
      "tourism": "attraction",
      "historic": "monument",
      "int_name": "Manastir Sv. Andrej",
      "religion": "christian",
      "denomination": "orthodox",
      "place_of_worship:type": "monastery",
      "id": "node/1831180502"
    },
    "geometry": {
      "type": "Point",
      "coordinates": [
        21.2991931,
        41.9505936
      ]
    }
  },
  {
    "type": "Feature",
    "id": "node/1831180525",
    "properties": {
      "timestamp": "2015-07-14T13:49:01Z",
      "version": "4",
      "name": "Кањон Матка",
      "tourism": "hotel",
      "int_name": "Kanjon Matka",
      "id": "node/1831180525"
    },
    "geometry": {
      "type": "Point",
      "coordinates": [
        21.2991809,
        41.9503368
      ]
    }
  },
  {
    "type": "Feature",
    "id": "node/1831247821",
    "properties": {
      "timestamp": "2013-01-29T09:43:07Z",
      "version": "3",
      "name": "Св. Никола",
      "amenity": "place_of_worship",
      "tourism": "attraction",
      "int_name": "Sv. Nikola",
      "religion": "christian",
      "denomination": "orthodox",
      "place_of_worship:type": "monastery",
      "id": "node/1831247821"
    },
    "geometry": {
      "type": "Point",
      "coordinates": [
        21.3042042,
        41.951833
      ]
    }
  },
  {
    "type": "Feature",
    "id": "node/1853704787",
    "properties": {
      "timestamp": "2020-01-10T07:49:43Z",
      "version": "3",
      "name": "Музеј на Дојран",
      "tourism": "museum",
      "id": "node/1853704787"
    },
    "geometry": {
      "type": "Point",
      "coordinates": [
        22.7221034,
        41.1871817
      ]
    }
  },
  {
    "type": "Feature",
    "id": "node/1857486060",
    "properties": {
      "timestamp": "2012-08-14T15:32:18Z",
      "version": "3",
      "name": "Филип Втори",
      "layer": "1",
      "historic": "monument",
      "id": "node/1857486060"
    },
    "geometry": {
      "type": "Point",
      "coordinates": [
        21.4617772,
        42.0017233
      ]
    }
  },
  {
    "type": "Feature",
    "id": "node/1859114111",
    "properties": {
      "timestamp": "2020-07-30T08:43:07Z",
      "version": "9",
      "name": "Luxury apart Skopje",
      "image": "https://upload.wikimedia.org/wikipedia/commons/d/d2/Philip_II_of_Macedon_monument_in_Skopje.JPG",
      "name:de": "Philipp II. (Makedonien)",
      "name:en": "Philip II of Macedon",
      "tourism": "artwork",
      "historic": "memorial",
      "memorial": "statue",
      "inscription": "Филип II Македонски",
      "artwork_type": "statue",
      "subject:wikidata": "Q130650",
      "subject:wikipedia": "mk:Филип II Македонски",
      "id": "node/1859114111"
    },
    "geometry": {
      "type": "Point",
      "coordinates": [
        21.4349949,
        41.9984602
      ]
    }
  },
  {
    "type": "Feature",
    "id": "node/1866944575",
    "properties": {
      "timestamp": "2017-09-15T16:30:01Z",
      "version": "4",
      "name": "Св. Климент Охридски",
      "name:en": "Clement of Ohrid",
      "tourism": "artwork",
      "historic": "memorial",
      "int_name": "Sv. Kliment Ohridski",
      "memorial": "statue",
      "wikidata": "Q158504",
      "wikipedia": "mk:Свети Климент Охридски",
      "inscription": "Св. Климент Охридски",
      "artwork_type": "statue",
      "id": "node/1866944575"
    },
    "geometry": {
      "type": "Point",
      "coordinates": [
        21.4254968,
        41.9983057
      ]
    }
  },
  {
    "type": "Feature",
    "id": "node/1867151652",
    "properties": {
      "timestamp": "2019-05-16T12:44:26Z",
      "version": "7",
      "name": "Скендербег",
      "name:de": "Skanderbeg",
      "name:en": "Skanderbeg",
      "name:sh": "Skënderbeu",
      "tourism": "artwork",
      "historic": "memorial",
      "memorial": "statue",
      "wikidata": "Q160614",
      "wikipedia": "mk:Скендербег",
      "inscription": "Скендербег",
      "artwork_type": "statue",
      "id": "node/1867151652"
    },
    "geometry": {
      "type": "Point",
      "coordinates": [
        21.4372205,
        41.9992386
      ]
    }
  },
  {
    "type": "Feature",
    "id": "node/1867606193",
    "properties": {
      "timestamp": "2012-08-15T17:04:25Z",
      "version": "1",
      "name": "Маркова Нога",
      "source": "Bing",
      "historic": "monument",
      "id": "node/1867606193"
    },
    "geometry": {
      "type": "Point",
      "coordinates": [
        21.1195933,
        40.8570205
      ]
    }
  },
  {
    "type": "Feature",
    "id": "node/1868879920",
    "properties": {
      "timestamp": "2015-11-09T16:07:28Z",
      "version": "2",
      "name": "Св. Пантелејмон",
      "tourism": "viewpoint",
      "id": "node/1868879920"
    },
    "geometry": {
      "type": "Point",
      "coordinates": [
        21.3747577,
        41.977049
      ]
    }
  },
  {
    "type": "Feature",
    "id": "node/1872779042",
    "properties": {
      "timestamp": "2012-08-19T13:54:23Z",
      "version": "1",
      "name": "Вила Вакане",
      "source": "Bing",
      "tourism": "guest_house",
      "id": "node/1872779042"
    },
    "geometry": {
      "type": "Point",
      "coordinates": [
        22.896807,
        41.6767336
      ]
    }
  },
  {
    "type": "Feature",
    "id": "node/1872779050",
    "properties": {
      "timestamp": "2012-08-19T13:54:23Z",
      "version": "1",
      "name": "Вила Фидански",
      "source": "Bing",
      "tourism": "guest_house",
      "int_name": "Vila Fidanski",
      "id": "node/1872779050"
    },
    "geometry": {
      "type": "Point",
      "coordinates": [
        22.8963993,
        41.6774869
      ]
    }
  },
  {
    "type": "Feature",
    "id": "node/1872779051",
    "properties": {
      "timestamp": "2012-08-19T13:54:23Z",
      "version": "1",
      "name": "Вила Нешо",
      "source": "Bing",
      "tourism": "guest_house",
      "int_name": "Vila Nesho",
      "id": "node/1872779051"
    },
    "geometry": {
      "type": "Point",
      "coordinates": [
        22.893422,
        41.6783964
      ]
    }
  },
  {
    "type": "Feature",
    "id": "node/1872779055",
    "properties": {
      "timestamp": "2012-08-19T13:54:23Z",
      "version": "1",
      "name": "Бистра",
      "source": "Bing",
      "tourism": "motel",
      "int_name": "Bistra",
      "id": "node/1872779055"
    },
    "geometry": {
      "type": "Point",
      "coordinates": [
        22.9094697,
        41.6730814
      ]
    }
  },
  {
    "type": "Feature",
    "id": "node/1874196865",
    "properties": {
      "timestamp": "2012-08-20T10:33:03Z",
      "version": "1",
      "name": "Осоговски Бисер",
      "tourism": "hotel",
      "id": "node/1874196865"
    },
    "geometry": {
      "type": "Point",
      "coordinates": [
        22.3530578,
        42.0367674
      ]
    }
  },
  {
    "type": "Feature",
    "id": "node/1879078048",
    "properties": {
      "timestamp": "2013-09-20T23:32:47Z",
      "version": "2",
      "name": "Три Круши",
      "place": "locality",
      "tourism": "viewpoint",
      "id": "node/1879078048"
    },
    "geometry": {
      "type": "Point",
      "coordinates": [
        21.5227,
        41.9288003
      ]
    }
  },
  {
    "type": "Feature",
    "id": "node/1879436069",
    "properties": {
      "timestamp": "2017-09-05T01:00:37Z",
      "version": "3",
      "name": "Костоперска Карпа",
      "tourism": "attraction",
      "historic": "archaeological_site",
      "wikidata": "Q20570399",
      "wikipedia": "mk:Костоперска Карпа",
      "historic:civilization": "prehistoric",
      "id": "node/1879436069"
    },
    "geometry": {
      "type": "Point",
      "coordinates": [
        21.809838,
        42.1706665
      ]
    }
  },
  {
    "type": "Feature",
    "id": "node/1879461479",
    "properties": {
      "timestamp": "2019-03-20T13:52:42Z",
      "version": "8",
      "name": "Кокино",
      "name:bg": "Кокино",
      "name:cs": "Kokino",
      "name:de": "Kokino",
      "name:el": "Κόκινο",
      "name:en": "Kokino",
      "name:fr": "Kokino",
      "name:pl": "Kokino",
      "name:ru": "Кокино",
      "name:sr": "Кокино",
      "name:sv": "Kokino",
      "name:uk": "Кокіно",
      "tourism": "attraction",
      "website": "https://en.wikipedia.org/wiki/Kokino",
      "historic": "archaeological_site",
      "int_name": "Kokino",
      "wikidata": "Q1326977",
      "site_type": "megalith",
      "wikipedia": "mk:Кокино (локалитет)",
      "historic:period": "Bronze Age",
      "id": "node/1879461479"
    },
    "geometry": {
      "type": "Point",
      "coordinates": [
        21.953118,
        42.2633818
      ]
    }
  },
  {
    "type": "Feature",
    "id": "node/1880656140",
    "properties": {
      "timestamp": "2012-08-24T11:24:35Z",
      "version": "1",
      "name": "Белви",
      "tourism": "caravan_site",
      "int_name": "Bellevue",
      "id": "node/1880656140"
    },
    "geometry": {
      "type": "Point",
      "coordinates": [
        21.549603,
        41.9966896
      ]
    }
  },
  {
    "type": "Feature",
    "id": "node/1909982080",
    "properties": {
      "timestamp": "2016-11-12T19:14:02Z",
      "version": "5",
      "name": "Ѕидан Мост",
      "source": "Bing",
      "name:en": "Dzidan Most",
      "tourism": "motel",
      "int_name": "Dzidan Most",
      "id": "node/1909982080"
    },
    "geometry": {
      "type": "Point",
      "coordinates": [
        21.4712294,
        41.5901499
      ]
    }
  },
  {
    "type": "Feature",
    "id": "node/1909993554",
    "properties": {
      "timestamp": "2012-09-11T14:34:37Z",
      "version": "1",
      "tourism": "hotel",
      "id": "node/1909993554"
    },
    "geometry": {
      "type": "Point",
      "coordinates": [
        21.5522332,
        41.6798004
      ]
    }
  },
  {
    "type": "Feature",
    "id": "node/1911159138",
    "properties": {
      "timestamp": "2019-01-22T10:30:56Z",
      "version": "3",
      "name": "Смрдлива Вода",
      "place": "locality",
      "tourism": "yes",
      "int_name": "Smrdliva Voda",
      "wikidata": "Q22088931",
      "id": "node/1911159138"
    },
    "geometry": {
      "type": "Point",
      "coordinates": [
        22.2825627,
        41.190428
      ]
    }
  },
  {
    "type": "Feature",
    "id": "node/1911952154",
    "properties": {
      "timestamp": "2012-09-12T19:00:49Z",
      "version": "1",
      "tourism": "information",
      "id": "node/1911952154"
    },
    "geometry": {
      "type": "Point",
      "coordinates": [
        22.2012151,
        41.1772393
      ]
    }
  },
  {
    "type": "Feature",
    "id": "node/1916474196",
    "properties": {
      "timestamp": "2019-05-06T17:16:26Z",
      "version": "6",
      "name": "Смоларски Водопади",
      "height": "39.5",
      "name:en": "Smolare Falls",
      "tourism": "attraction",
      "int_name": "Smolarski Vodopadi",
      "waterway": "waterfall",
      "id": "node/1916474196"
    },
    "geometry": {
      "type": "Point",
      "coordinates": [
        22.8995124,
        41.3659468
      ]
    }
  },
  {
    "type": "Feature",
    "id": "node/1916491348",
    "properties": {
      "timestamp": "2019-06-15T23:39:57Z",
      "version": "5",
      "name": "Колешински водопад",
      "name:en": "Koleshino Falls",
      "tourism": "attraction",
      "int_name": "Kolešinski vodopad",
      "waterway": "waterfall",
      "wikidata": "Q2940856",
      "wikipedia": "mk:Колешински водопад",
      "id": "node/1916491348"
    },
    "geometry": {
      "type": "Point",
      "coordinates": [
        22.8069508,
        41.3693502
      ]
    }
  },
  {
    "type": "Feature",
    "id": "node/1920245399",
    "properties": {
      "timestamp": "2012-09-18T14:41:29Z",
      "version": "1",
      "tourism": "zoo",
      "id": "node/1920245399"
    },
    "geometry": {
      "type": "Point",
      "coordinates": [
        22.1635034,
        42.1820228
      ]
    }
  },
  {
    "type": "Feature",
    "id": "node/1951109709",
    "properties": {
      "timestamp": "2013-12-02T15:26:54Z",
      "version": "3",
      "name": "Пантелеј",
      "tourism": "picnic_site",
      "id": "node/1951109709"
    },
    "geometry": {
      "type": "Point",
      "coordinates": [
        22.310118,
        41.9673209
      ]
    }
  },
  {
    "type": "Feature",
    "id": "node/1951175744",
    "properties": {
      "timestamp": "2012-10-07T17:50:59Z",
      "version": "1",
      "name": "Кај Дабо",
      "name:en": "Kaj Dabo",
      "tourism": "picnic_site",
      "int_name": "Kaj Dabo",
      "id": "node/1951175744"
    },
    "geometry": {
      "type": "Point",
      "coordinates": [
        22.3728601,
        41.9372016
      ]
    }
  },
  {
    "type": "Feature",
    "id": "node/1964169959",
    "properties": {
      "timestamp": "2013-06-07T14:37:06Z",
      "version": "2",
      "name": "Ваго 2",
      "name:en": "Vago 2",
      "tourism": "motel",
      "int_name": "Vago 2",
      "id": "node/1964169959"
    },
    "geometry": {
      "type": "Point",
      "coordinates": [
        22.2356592,
        41.8328148
      ]
    }
  },
  {
    "type": "Feature",
    "id": "node/1969642814",
    "properties": {
      "timestamp": "2012-10-17T10:35:56Z",
      "version": "1",
      "name": "Извор",
      "name:en": "Izvor",
      "tourism": "motel",
      "int_name": "Izvor",
      "id": "node/1969642814"
    },
    "geometry": {
      "type": "Point",
      "coordinates": [
        21.2205568,
        41.6151033
      ]
    }
  },
  {
    "type": "Feature",
    "id": "node/1969643169",
    "properties": {
      "timestamp": "2015-11-12T13:27:42Z",
      "version": "2",
      "name": "Девини Кули",
      "name:en": "Devi Towers",
      "historic": "ruins",
      "int_name": "Devini Kuli",
      "id": "node/1969643169"
    },
    "geometry": {
      "type": "Point",
      "coordinates": [
        21.2379375,
        41.5416482
      ]
    }
  },
  {
    "type": "Feature",
    "id": "node/1969643201",
    "properties": {
      "timestamp": "2017-08-31T21:42:29Z",
      "version": "2",
      "name": "Пешна",
      "email": "pesnamotel@yahoo.com",
      "name:en": "Peshna",
      "phone:1": "+389 75 44 64 10",
      "phone:2": "+389 76 432 432",
      "tourism": "motel",
      "website": "www.pesnamotel.com.mk",
      "int_name": "Pešna",
      "id": "node/1969643201"
    },
    "geometry": {
      "type": "Point",
      "coordinates": [
        21.2443132,
        41.5411002
      ]
    }
  },
  {
    "type": "Feature",
    "id": "node/1969931445",
    "properties": {
      "timestamp": "2012-10-17T14:30:39Z",
      "version": "1",
      "ele": "1913.9",
      "name": "10",
      "marker": "stone",
      "boundary": "marker",
      "historic": "boundary_stone",
      "id": "node/1969931445"
    },
    "geometry": {
      "type": "Point",
      "coordinates": [
        22.9916057,
        41.3335444
      ]
    }
  },
  {
    "type": "Feature",
    "id": "node/1969931465",
    "properties": {
      "timestamp": "2012-10-17T14:30:39Z",
      "version": "1",
      "name": "11",
      "marker": "stone",
      "boundary": "marker",
      "historic": "boundary_stone",
      "id": "node/1969931465"
    },
    "geometry": {
      "type": "Point",
      "coordinates": [
        23.0045415,
        41.3295178
      ]
    }
  },
  {
    "type": "Feature",
    "id": "node/1969931469",
    "properties": {
      "timestamp": "2012-10-17T14:30:39Z",
      "version": "1",
      "ele": "1823.6",
      "name": "12",
      "marker": "stone",
      "boundary": "marker",
      "historic": "boundary_stone",
      "id": "node/1969931469"
    },
    "geometry": {
      "type": "Point",
      "coordinates": [
        23.015062,
        41.3297879
      ]
    }
  },
  {
    "type": "Feature",
    "id": "node/1969931474",
    "properties": {
      "timestamp": "2012-10-17T14:30:39Z",
      "version": "1",
      "name": "13",
      "marker": "stone",
      "boundary": "marker",
      "historic": "boundary_stone",
      "id": "node/1969931474"
    },
    "geometry": {
      "type": "Point",
      "coordinates": [
        23.016135,
        41.3301726
      ]
    }
  },
  {
    "type": "Feature",
    "id": "node/1969931477",
    "properties": {
      "timestamp": "2012-10-17T14:30:39Z",
      "version": "1",
      "ele": "1745.5",
      "name": "14",
      "marker": "stone",
      "boundary": "marker",
      "historic": "boundary_stone",
      "id": "node/1969931477"
    },
    "geometry": {
      "type": "Point",
      "coordinates": [
        23.0210206,
        41.3305055
      ]
    }
  },
  {
    "type": "Feature",
    "id": "node/1969931481",
    "properties": {
      "timestamp": "2012-10-17T14:30:39Z",
      "version": "1",
      "name": "15",
      "marker": "stone",
      "boundary": "marker",
      "historic": "boundary_stone",
      "id": "node/1969931481"
    },
    "geometry": {
      "type": "Point",
      "coordinates": [
        23.0277237,
        41.3339144
      ]
    }
  },
  {
    "type": "Feature",
    "id": "node/1969931488",
    "properties": {
      "timestamp": "2012-10-17T14:30:39Z",
      "version": "1",
      "name": "16",
      "marker": "stone",
      "boundary": "marker",
      "historic": "boundary_stone",
      "id": "node/1969931488"
    },
    "geometry": {
      "type": "Point",
      "coordinates": [
        23.0322889,
        41.3325627
      ]
    }
  },
  {
    "type": "Feature",
    "id": "node/1969931499",
    "properties": {
      "timestamp": "2012-10-17T14:30:40Z",
      "version": "1",
      "name": "17",
      "marker": "stone",
      "boundary": "marker",
      "historic": "boundary_stone",
      "id": "node/1969931499"
    },
    "geometry": {
      "type": "Point",
      "coordinates": [
        23.0363949,
        41.3318912
      ]
    }
  },
  {
    "type": "Feature",
    "id": "node/1969931503",
    "properties": {
      "timestamp": "2012-10-17T14:30:40Z",
      "version": "1",
      "ele": "1757.7",
      "name": "18",
      "marker": "stone",
      "boundary": "marker",
      "historic": "boundary_stone",
      "id": "node/1969931503"
    },
    "geometry": {
      "type": "Point",
      "coordinates": [
        23.0380441,
        41.3322397
      ]
    }
  },
  {
    "type": "Feature",
    "id": "node/1969931509",
    "properties": {
      "timestamp": "2012-10-17T14:30:40Z",
      "version": "1",
      "name": "19",
      "marker": "stone",
      "boundary": "marker",
      "historic": "boundary_stone",
      "id": "node/1969931509"
    },
    "geometry": {
      "type": "Point",
      "coordinates": [
        23.0538893,
        41.3267889
      ]
    }
  },
  {
    "type": "Feature",
    "id": "node/1969931516",
    "properties": {
      "timestamp": "2012-10-17T14:30:40Z",
      "version": "1",
      "name": "2",
      "marker": "stone",
      "boundary": "marker",
      "historic": "boundary_stone",
      "id": "node/1969931516"
    },
    "geometry": {
      "type": "Point",
      "coordinates": [
        22.9284006,
        41.3404886
      ]
    }
  },
  {
    "type": "Feature",
    "id": "node/1969931519",
    "properties": {
      "timestamp": "2012-10-17T14:30:40Z",
      "version": "1",
      "ele": "1812.0",
      "name": "20",
      "marker": "stone",
      "boundary": "marker",
      "historic": "boundary_stone",
      "id": "node/1969931519"
    },
    "geometry": {
      "type": "Point",
      "coordinates": [
        23.0574563,
        41.324476
      ]
    }
  },
  {
    "type": "Feature",
    "id": "node/1969931523",
    "properties": {
      "timestamp": "2012-10-17T14:30:40Z",
      "version": "1",
      "ele": "1808.6",
      "name": "21",
      "marker": "stone",
      "boundary": "marker",
      "historic": "boundary_stone",
      "id": "node/1969931523"
    },
    "geometry": {
      "type": "Point",
      "coordinates": [
        23.066945,
        41.3232178
      ]
    }
  },
  {
    "type": "Feature",
    "id": "node/1969931545",
    "properties": {
      "timestamp": "2012-10-17T14:30:40Z",
      "version": "1",
      "ele": "1839.5",
      "name": "23",
      "marker": "stone",
      "boundary": "marker",
      "historic": "boundary_stone",
      "id": "node/1969931545"
    },
    "geometry": {
      "type": "Point",
      "coordinates": [
        23.1044723,
        41.3167814
      ]
    }
  },
  {
    "type": "Feature",
    "id": "node/1969931550",
    "properties": {
      "timestamp": "2017-10-14T20:03:36Z",
      "version": "2",
      "ele": "2029.2",
      "name": "24",
      "marker": "stone",
      "boundary": "marker",
      "historic": "boundary_stone",
      "id": "node/1969931550"
    },
    "geometry": {
      "type": "Point",
      "coordinates": [
        23.1205954,
        41.3205848
      ]
    }
  },
  {
    "type": "Feature",
    "id": "node/1969931555",
    "properties": {
      "timestamp": "2012-10-17T14:30:41Z",
      "version": "1",
      "ele": "2001.3",
      "name": "25",
      "marker": "stone",
      "boundary": "marker",
      "historic": "boundary_stone",
      "id": "node/1969931555"
    },
    "geometry": {
      "type": "Point",
      "coordinates": [
        23.1286271,
        41.3202751
      ]
    }
  },
  {
    "type": "Feature",
    "id": "node/1969931561",
    "properties": {
      "timestamp": "2012-10-17T14:30:41Z",
      "version": "1",
      "ele": "1950.6",
      "name": "26",
      "marker": "stone",
      "boundary": "marker",
      "historic": "boundary_stone",
      "id": "node/1969931561"
    },
    "geometry": {
      "type": "Point",
      "coordinates": [
        23.1470005,
        41.3199092
      ]
    }
  },
  {
    "type": "Feature",
    "id": "node/1969931565",
    "properties": {
      "timestamp": "2012-10-17T14:30:41Z",
      "version": "1",
      "ele": "1973.9",
      "name": "27",
      "marker": "stone",
      "boundary": "marker",
      "historic": "boundary_stone",
      "id": "node/1969931565"
    },
    "geometry": {
      "type": "Point",
      "coordinates": [
        23.1598727,
        41.3218013
      ]
    }
  },
  {
    "type": "Feature",
    "id": "node/1969931585",
    "properties": {
      "timestamp": "2012-10-17T14:30:41Z",
      "version": "1",
      "ele": "1951.3",
      "name": "28",
      "marker": "stone",
      "boundary": "marker",
      "historic": "boundary_stone",
      "id": "node/1969931585"
    },
    "geometry": {
      "type": "Point",
      "coordinates": [
        23.1746442,
        41.3211705
      ]
    }
  },
  {
    "type": "Feature",
    "id": "node/1969931589",
    "properties": {
      "timestamp": "2012-10-17T14:30:41Z",
      "version": "1",
      "ele": "1912.9",
      "name": "29",
      "marker": "stone",
      "boundary": "marker",
      "historic": "boundary_stone",
      "id": "node/1969931589"
    },
    "geometry": {
      "type": "Point",
      "coordinates": [
        23.1800334,
        41.3187336
      ]
    }
  },
  {
    "type": "Feature",
    "id": "node/1969931594",
    "properties": {
      "timestamp": "2012-10-17T14:30:41Z",
      "version": "1",
      "name": "3",
      "marker": "stone",
      "boundary": "marker",
      "historic": "boundary_stone",
      "id": "node/1969931594"
    },
    "geometry": {
      "type": "Point",
      "coordinates": [
        22.9317378,
        41.3404433
      ]
    }
  },
  {
    "type": "Feature",
    "id": "node/1969931597",
    "properties": {
      "timestamp": "2012-10-17T14:30:42Z",
      "version": "1",
      "ele": "1706.9",
      "name": "30",
      "marker": "stone",
      "boundary": "marker",
      "historic": "boundary_stone",
      "id": "node/1969931597"
    },
    "geometry": {
      "type": "Point",
      "coordinates": [
        23.1888855,
        41.3226882
      ]
    }
  },
  {
    "type": "Feature",
    "id": "node/1969931601",
    "properties": {
      "timestamp": "2012-10-17T14:30:42Z",
      "version": "1",
      "ele": "1662.6",
      "name": "31",
      "marker": "stone",
      "boundary": "marker",
      "historic": "boundary_stone",
      "id": "node/1969931601"
    },
    "geometry": {
      "type": "Point",
      "coordinates": [
        23.198594,
        41.3225626
      ]
    }
  },
  {
    "type": "Feature",
    "id": "node/1969931619",
    "properties": {
      "timestamp": "2012-10-17T14:30:42Z",
      "version": "1",
      "ele": "1513.2",
      "name": "32",
      "marker": "stone",
      "boundary": "marker",
      "historic": "boundary_stone",
      "id": "node/1969931619"
    },
    "geometry": {
      "type": "Point",
      "coordinates": [
        23.2059235,
        41.3259306
      ]
    }
  },
  {
    "type": "Feature",
    "id": "node/1969931631",
    "properties": {
      "timestamp": "2012-10-17T14:30:42Z",
      "version": "1",
      "ele": "1386.9",
      "name": "33",
      "marker": "stone",
      "boundary": "marker",
      "historic": "boundary_stone",
      "id": "node/1969931631"
    },
    "geometry": {
      "type": "Point",
      "coordinates": [
        23.2166658,
        41.3311887
      ]
    }
  },
  {
    "type": "Feature",
    "id": "node/1969931638",
    "properties": {
      "timestamp": "2012-10-17T14:30:42Z",
      "version": "1",
      "ele": "1355.8",
      "name": "34",
      "marker": "stone",
      "boundary": "marker",
      "historic": "boundary_stone",
      "id": "node/1969931638"
    },
    "geometry": {
      "type": "Point",
      "coordinates": [
        23.225336,
        41.3379047
      ]
    }
  },
  {
    "type": "Feature",
    "id": "node/1969931642",
    "properties": {
      "timestamp": "2012-10-17T14:30:42Z",
      "version": "1",
      "name": "35",
      "marker": "stone",
      "boundary": "marker",
      "historic": "boundary_stone",
      "id": "node/1969931642"
    },
    "geometry": {
      "type": "Point",
      "coordinates": [
        23.225256,
        41.3408264
      ]
    }
  },
  {
    "type": "Feature",
    "id": "node/1969931645",
    "properties": {
      "timestamp": "2012-10-17T14:30:42Z",
      "version": "1",
      "name": "37",
      "marker": "stone",
      "boundary": "marker",
      "historic": "boundary_stone",
      "id": "node/1969931645"
    },
    "geometry": {
      "type": "Point",
      "coordinates": [
        23.2297398,
        41.3563888
      ]
    }
  },
  {
    "type": "Feature",
    "id": "node/1969931649",
    "properties": {
      "timestamp": "2012-10-17T14:30:43Z",
      "version": "1",
      "name": "38",
      "marker": "stone",
      "boundary": "marker",
      "historic": "boundary_stone",
      "id": "node/1969931649"
    },
    "geometry": {
      "type": "Point",
      "coordinates": [
        23.2261314,
        41.3677165
      ]
    }
  },
  {
    "type": "Feature",
    "id": "node/1969931663",
    "properties": {
      "timestamp": "2012-10-20T10:00:30Z",
      "version": "2",
      "name": "39",
      "marker": "stone",
      "boundary": "marker",
      "historic": "boundary_stone",
      "id": "node/1969931663"
    },
    "geometry": {
      "type": "Point",
      "coordinates": [
        23.2315337,
        41.3709718
      ]
    }
  },
  {
    "type": "Feature",
    "id": "node/1969931668",
    "properties": {
      "timestamp": "2012-10-17T14:30:43Z",
      "version": "1",
      "name": "4",
      "marker": "stone",
      "boundary": "marker",
      "historic": "boundary_stone",
      "id": "node/1969931668"
    },
    "geometry": {
      "type": "Point",
      "coordinates": [
        22.9350657,
        41.3399173
      ]
    }
  },
  {
    "type": "Feature",
    "id": "node/1969931675",
    "properties": {
      "timestamp": "2012-10-17T14:30:43Z",
      "version": "1",
      "name": "40",
      "marker": "stone",
      "boundary": "marker",
      "historic": "boundary_stone",
      "id": "node/1969931675"
    },
    "geometry": {
      "type": "Point",
      "coordinates": [
        23.2317678,
        41.3750814
      ]
    }
  },
  {
    "type": "Feature",
    "id": "node/1969931680",
    "properties": {
      "timestamp": "2012-10-17T14:30:43Z",
      "version": "1",
      "name": "41",
      "marker": "stone",
      "boundary": "marker",
      "historic": "boundary_stone",
      "id": "node/1969931680"
    },
    "geometry": {
      "type": "Point",
      "coordinates": [
        23.2396787,
        41.376885
      ]
    }
  },
  {
    "type": "Feature",
    "id": "node/1969931685",
    "properties": {
      "timestamp": "2012-10-17T14:30:43Z",
      "version": "1",
      "name": "42",
      "marker": "stone",
      "boundary": "marker",
      "historic": "boundary_stone",
      "id": "node/1969931685"
    },
    "geometry": {
      "type": "Point",
      "coordinates": [
        23.2425173,
        41.3789232
      ]
    }
  },
  {
    "type": "Feature",
    "id": "node/1969931688",
    "properties": {
      "timestamp": "2012-10-17T14:30:43Z",
      "version": "1",
      "name": "43",
      "marker": "stone",
      "boundary": "marker",
      "historic": "boundary_stone",
      "id": "node/1969931688"
    },
    "geometry": {
      "type": "Point",
      "coordinates": [
        23.2443646,
        41.3808775
      ]
    }
  },
  {
    "type": "Feature",
    "id": "node/1969931691",
    "properties": {
      "timestamp": "2012-10-17T14:30:43Z",
      "version": "1",
      "name": "46",
      "marker": "stone",
      "boundary": "marker",
      "historic": "boundary_stone",
      "id": "node/1969931691"
    },
    "geometry": {
      "type": "Point",
      "coordinates": [
        23.2601115,
        41.3850179
      ]
    }
  },
  {
    "type": "Feature",
    "id": "node/1969931709",
    "properties": {
      "timestamp": "2012-10-17T14:30:44Z",
      "version": "1",
      "name": "47",
      "marker": "stone",
      "boundary": "marker",
      "historic": "boundary_stone",
      "id": "node/1969931709"
    },
    "geometry": {
      "type": "Point",
      "coordinates": [
        23.2639023,
        41.3862109
      ]
    }
  },
  {
    "type": "Feature",
    "id": "node/1969931715",
    "properties": {
      "timestamp": "2012-10-17T14:30:44Z",
      "version": "1",
      "ele": "361.3",
      "name": "48",
      "marker": "stone",
      "boundary": "marker",
      "historic": "boundary_stone",
      "id": "node/1969931715"
    },
    "geometry": {
      "type": "Point",
      "coordinates": [
        23.2644844,
        41.3896195
      ]
    }
  },
  {
    "type": "Feature",
    "id": "node/1969931722",
    "properties": {
      "timestamp": "2012-10-17T14:30:44Z",
      "version": "1",
      "name": "49",
      "marker": "stone",
      "boundary": "marker",
      "historic": "boundary_stone",
      "id": "node/1969931722"
    },
    "geometry": {
      "type": "Point",
      "coordinates": [
        23.2667909,
        41.3902583
      ]
    }
  },
  {
    "type": "Feature",
    "id": "node/1969931727",
    "properties": {
      "timestamp": "2012-10-17T14:30:44Z",
      "version": "1",
      "name": "5",
      "marker": "stone",
      "boundary": "marker",
      "historic": "boundary_stone",
      "id": "node/1969931727"
    },
    "geometry": {
      "type": "Point",
      "coordinates": [
        22.9392448,
        41.3382814
      ]
    }
  },
  {
    "type": "Feature",
    "id": "node/1969931733",
    "properties": {
      "timestamp": "2012-10-17T14:30:44Z",
      "version": "1",
      "name": "50",
      "marker": "stone",
      "boundary": "marker",
      "historic": "boundary_stone",
      "id": "node/1969931733"
    },
    "geometry": {
      "type": "Point",
      "coordinates": [
        23.2694662,
        41.3912331
      ]
    }
  },
  {
    "type": "Feature",
    "id": "node/1969931736",
    "properties": {
      "timestamp": "2012-10-17T14:30:44Z",
      "version": "1",
      "name": "51",
      "marker": "stone",
      "boundary": "marker",
      "historic": "boundary_stone",
      "id": "node/1969931736"
    },
    "geometry": {
      "type": "Point",
      "coordinates": [
        23.2837785,
        41.4003143
      ]
    }
  },
  {
    "type": "Feature",
    "id": "node/1969931745",
    "properties": {
      "timestamp": "2012-10-17T14:30:45Z",
      "version": "1",
      "ele": "329.3",
      "name": "52",
      "marker": "stone",
      "boundary": "marker",
      "historic": "boundary_stone",
      "id": "node/1969931745"
    },
    "geometry": {
      "type": "Point",
      "coordinates": [
        23.2855878,
        41.3992957
      ]
    }
  },
  {
    "type": "Feature",
    "id": "node/1969931749",
    "properties": {
      "timestamp": "2012-10-17T14:30:45Z",
      "version": "1",
      "name": "53",
      "marker": "stone",
      "boundary": "marker",
      "historic": "boundary_stone",
      "id": "node/1969931749"
    },
    "geometry": {
      "type": "Point",
      "coordinates": [
        23.2882881,
        41.400227
      ]
    }
  },
  {
    "type": "Feature",
    "id": "node/1969931752",
    "properties": {
      "timestamp": "2012-10-17T14:30:45Z",
      "version": "1",
      "name": "54",
      "marker": "stone",
      "boundary": "marker",
      "historic": "boundary_stone",
      "id": "node/1969931752"
    },
    "geometry": {
      "type": "Point",
      "coordinates": [
        23.2920236,
        41.4006885
      ]
    }
  },
  {
    "type": "Feature",
    "id": "node/1969931758",
    "properties": {
      "timestamp": "2012-10-17T14:30:45Z",
      "version": "1",
      "name": "55",
      "marker": "stone",
      "boundary": "marker",
      "historic": "boundary_stone",
      "id": "node/1969931758"
    },
    "geometry": {
      "type": "Point",
      "coordinates": [
        23.2969695,
        41.3999633
      ]
    }
  },
  {
    "type": "Feature",
    "id": "node/1969931764",
    "properties": {
      "timestamp": "2012-10-17T14:30:45Z",
      "version": "1",
      "name": "56",
      "marker": "stone",
      "boundary": "marker",
      "historic": "boundary_stone",
      "id": "node/1969931764"
    },
    "geometry": {
      "type": "Point",
      "coordinates": [
        23.2974506,
        41.4012772
      ]
    }
  },
  {
    "type": "Feature",
    "id": "node/1969931770",
    "properties": {
      "timestamp": "2012-10-17T14:30:45Z",
      "version": "1",
      "ele": "264.5",
      "name": "57",
      "marker": "stone",
      "boundary": "marker",
      "historic": "boundary_stone",
      "id": "node/1969931770"
    },
    "geometry": {
      "type": "Point",
      "coordinates": [
        23.3060729,
        41.4014393
      ]
    }
  },
  {
    "type": "Feature",
    "id": "node/1969931791",
    "properties": {
      "timestamp": "2012-10-17T14:30:45Z",
      "version": "1",
      "name": "66",
      "marker": "stone",
      "boundary": "marker",
      "historic": "boundary_stone",
      "id": "node/1969931791"
    },
    "geometry": {
      "type": "Point",
      "coordinates": [
        23.3385347,
        41.3683832
      ]
    }
  },
  {
    "type": "Feature",
    "id": "node/1969931792",
    "properties": {
      "timestamp": "2012-10-17T14:30:45Z",
      "version": "1",
      "name": "67",
      "marker": "stone",
      "boundary": "marker",
      "historic": "boundary_stone",
      "id": "node/1969931792"
    },
    "geometry": {
      "type": "Point",
      "coordinates": [
        23.3404933,
        41.3635213
      ]
    }
  },
  {
    "type": "Feature",
    "id": "node/1969931795",
    "properties": {
      "timestamp": "2012-10-17T14:30:46Z",
      "version": "1",
      "name": "7",
      "marker": "stone",
      "boundary": "marker",
      "historic": "boundary_stone",
      "id": "node/1969931795"
    },
    "geometry": {
      "type": "Point",
      "coordinates": [
        22.966302,
        41.333749
      ]
    }
  },
  {
    "type": "Feature",
    "id": "node/1969931799",
    "properties": {
      "timestamp": "2012-10-17T14:30:46Z",
      "version": "1",
      "name": "8",
      "marker": "stone",
      "boundary": "marker",
      "historic": "boundary_stone",
      "id": "node/1969931799"
    },